ms_today;input_voltage;temp_mos_max;temp_mos_1;temp_mos_2;temp_mos_3;temp_motor;current_motor;current_in;d_axis_current;q_axis_current;erpm;duty_cycle;amp_hours_used;amp_hours_charged;watt_hours_used;watt_hours_charged;tachometer;tachometer_abs;encoder_position;fault_code;vesc_id;d_axis_voltage;q_axis_voltage;ms_today_setup;amp_hours_setup;amp_hours_charged_setup;watt_hours_setup;watt_hours_charged_setup;battery_level;battery_wh_tot;current_in_setup;current_motor_setup;speed_meters_per_sec;tacho_meters;tacho_abs_meters;num_vescs;ms_today_imu;roll;pitch;yaw;accX;accY;accZ;gyroX;gyroY;gyroZ;gnss_posTime;gnss_lat;gnss_lon;gnss_alt;gnss_gVel;gnss_vVel;gnss_hAcc;gnss_vAcc;
43148179;76.7;23.6;23.7;20.7;20.6;20.5;0;0;0;0;0;-0.001;0.0173;0;1.3352;0;23;95;118.8;0;56;0.021;-0.049;43147982;0.0173;0;1.3352;0;0.54;204.132;0;0;0;0.161;0.666;1;-1;0;0;0;0;0;0;0;0;0;-1;0.00000000;0.00000000;0.00000000;0.00000000;0.00000000;0.00000000;0.00000000;
43148231;76.7;23.6;23.7;20.8;20.6;20.5;0;0;0;0;0;-0.001;0.0173;0;1.3352;0;23;95;118.8;0;56;0.022;-0.049;43148179;0.0173;0;1.3352;0;0.54;204.113;0;0;0;0.161;0.666;1;-1;0;0;0;0;0;0;0;0;0;-1;0.00000000;0.00000000;0.00000000;0.00000000;0.00000000;0.00000000;0.00000000;
43148266;76.7;23.6;23.6;20.8;20.6;20.5;0;0;0;0;0;-0.001;0.0173;0;1.3352;0;23;95;118.8;0;56;0.02;-0.049;43148231;0.0173;0;1.3352;0;0.54;204.107;0;0;0;0.161;0.666;1;-1;0;0;0;0;0;0;0;0;0;-1;0.00000000;0.00000000;0.00000000;0.00000000;0.00000000;0.00000000;0.00000000;
43148326;76.7;23.6;23.6;20.8;20.6;20.6;0;0;0;0;0;-0.001;0.0173;0;1.3352;0;23;95;118.8;0;56;0.024;-0.049;43148267;0.0173;0;1.3352;0;0.54;204.101;0;0;0;0.161;0.666;1;-1;0;0;0;0;0;0;0;0;0;-1;0.00000000;0.00000000;0.00000000;0.00000000;0.00000000;0.00000000;0.00000000;
43148370;76.7;23.6;23.7;20.8;20.6;20.5;0;0;0;0;0;-0.001;0.0173;0;1.3352;0;23;95;118.8;0;56;0.03;-0.049;43148327;0.0173;0;1.3352;0;0.54;204.094;0;0;0;0.161;0.666;1;-1;0;0;0;0;0;0;0;0;0;-1;0.00000000;0.00000000;0.00000000;0.00000000;0.00000000;0.00000000;0.00000000;
43148419;76.7;23.6;23.6;20.7;20.5;20.5;0;0;0;0;0;-0.001;0.0173;0;1.3352;0;23;95;118.8;0;56;0.02;-0.049;43148370;0.0173;0;1.3352;0;0.54;204.085;0;0;0;0.161;0.666;1;-1;0;0;0;0;0;0;0;0;0;-1;0.00000000;0.00000000;0.00000000;0.00000000;0.00000000;0.00000000;0.00000000;
43148451;76.7;23.6;23.6;20.7;20.6;20.6;0;0;0;0;0;-0.001;0.0173;0;1.3352;0;23;95;118.8;0;56;0.03;-0.05;43148420;0.0173;0;1.3352;0;0.54;204.082;0;0;0;0.161;0.666;1;-1;0;0;0;0;0;0;0;0;0;-1;0.00000000;0.00000000;0.00000000;0.00000000;0.00000000;0.00000000;0.00000000;
43148470;76.7;23.6;23.6;20.7;20.5;20.6;0;0;0;0;0;-0.001;0.0173;0;1.3352;0;23;95;118.8;0;56;0.02;-0.049;43148451;0.0173;0;1.3352;0;0.54;204.078;0;0;0;0.161;0.666;1;-1;0;0;0;0;0;0;0;0;0;-1;0.00000000;0.00000000;0.00000000;0.00000000;0.00000000;0.00000000;0.00000000;
43148528;76.7;23.6;23.6;20.8;20.6;20.5;0;0;0;0;0;-0.001;0.0173;0;1.3352;0;23;95;118.8;0;56;0.021;-0.049;43148470;0.0173;0;1.3352;0;0.54;204.073;0;0;0;0.161;0.666;1;-1;0;0;0;0;0;0;0;0;0;-1;0.00000000;0.00000000;0.00000000;0.00000000;0.00000000;0.00000000;0.00000000;
43148539;76.7;23.6;23.6;20.8;20.6;20.6;0;0;0;0;0;-0.001;0.0173;0;1.3352;0;23;95;118.8;0;56;0.024;-0.049;43148529;0.0173;0;1.3352;0;0.54;204.064;0;0;0;0.161;0.666;1;-1;0;0;0;0;0;0;0;0;0;-1;0.00000000;0.00000000;0.00000000;0.00000000;0.00000000;0.00000000;0.00000000;
43148571;76.7;23.6;23.6;20.7;20.6;20.6;0;0;0;0;0;-0.003;0.0173;0;1.3352;0;23;95;118.8;0;56;0.025;-0.049;43148539;0.0173;0;1.3352;0;0.54;204.06;0;0;0;0.161;0.666;1;-1;0;0;0;0;0;0;0;0;0;-1;0.00000000;0.00000000;0.00000000;0.00000000;0.00000000;0.00000000;0.00000000;
43148603;76.7;23.6;23.6;20.8;20.6;20.6;0;0;0;0;0;-0.001;0.0173;0;1.3352;0;23;95;118.8;0;56;0.026;-0.05;43148571;0.0173;0;1.3352;0;0.54;204.055;0;0;0;0.161;0.666;1;-1;0;0;0;0;0;0;0;0;0;-1;0.00000000;0.00000000;0.00000000;0.00000000;0.00000000;0.00000000;0.00000000;
43148636;76.7;23.6;23.5;20.8;20.7;20.6;0;0;0;0;0;-0.001;0.0173;0;1.3352;0;23;95;118.8;0;56;0.017;-0.049;43148603;0.0173;0;1.3352;0;0.54;204.052;0;0;0;0.161;0.666;1;-1;0;0;0;0;0;0;0;0;0;-1;0.00000000;0.00000000;0.00000000;0.00000000;0.00000000;0.00000000;0.00000000;
43148668;76.7;23.6;23.6;20.7;20.6;20.5;0;0;0;0;0;-0.001;0.0173;0;1.3352;0;23;95;118.8;0;56;0.026;-0.048;43148636;0.0173;0;1.3352;0;0.54;204.047;0;0;0;0.161;0.666;1;-1;0;0;0;0;0;0;0;0;0;-1;0.00000000;0.00000000;0.00000000;0.00000000;0.00000000;0.00000000;0.00000000;
43148699;76.7;23.6;23.6;20.8;20.6;20.5;0;0;0;0;0;-0.001;0.0173;0;1.3352;0;23;95;118.8;0;56;0.027;-0.049;43148668;0.0173;0;1.3352;0;0.54;204.043;0;0;0;0.161;0.666;1;-1;0;0;0;0;0;0;0;0;0;-1;0.00000000;0.00000000;0.00000000;0.00000000;0.00000000;0.00000000;0.00000000;
43148732;76.7;23.6;23.6;20.8;20.6;20.5;0;0;0;0;0;-0.001;0.0173;0;1.3352;0;23;95;118.8;0;56;0.024;-0.049;43148699;0.0173;0;1.3352;0;0.54;204.04;0;0;0;0.161;0.666;1;-1;0;0;0;0;0;0;0;0;0;-1;0.00000000;0.00000000;0.00000000;0.00000000;0.00000000;0.00000000;0.00000000;
43148779;76.7;23.6;23.6;20.7;20.6;20.6;0;0;0;0;0;-0.001;0.0173;0;1.3352;0;23;95;118.8;0;56;0.017;-0.049;43148733;0.0173;0;1.3352;0;0.54;204.038;0;0;0;0.161;0.666;1;-1;0;0;0;0;0;0;0;0;0;-1;0.00000000;0.00000000;0.00000000;0.00000000;0.00000000;0.00000000;0.00000000;
43148798;76.7;23.6;23.7;20.7;20.6;20.6;0;0;0;0;0;-0.001;0.0173;0;1.3352;0;23;95;118.8;0;56;0.027;-0.049;43148779;0.0173;0;1.3352;0;0.54;204.033;0;0;0;0.161;0.666;1;-1;0;0;0;0;0;0;0;0;0;-1;0.00000000;0.00000000;0.00000000;0.00000000;0.00000000;0.00000000;0.00000000;
43148860;76.7;23.6;23.6;20.7;20.6;20.6;0;0;0;0;0;-0.001;0.0173;0;1.3352;0;23;95;118.8;0;56;0.027;-0.049;43148799;0.0173;0;1.3352;0;0.54;204.028;0;0;0;0.161;0.666;1;-1;0;0;0;0;0;0;0;0;0;-1;0.00000000;0.00000000;0.00000000;0.00000000;0.00000000;0.00000000;0.00000000;
43148890;76.7;23.6;23.6;20.7;20.5;20.6;0;0;0;0;0;-0.001;0.0173;0;1.3352;0;23;95;118.8;0;56;0.025;-0.05;43148862;0.0173;0;1.3352;0;0.54;204.019;0;0;0;0.161;0.666;1;-1;0;0;0;0;0;0;0;0;0;-1;0.00000000;0.00000000;0.00000000;0.00000000;0.00000000;0.00000000;0.00000000;
43148921;76.7;23.6;23.6;20.8;20.6;20.6;0;0;0;0;0;-0.001;0.0173;0;1.3352;0;23;95;118.8;0;56;0.022;-0.049;43148891;0.0173;0;1.3352;0;0.54;204.018;0;0;0;0.161;0.666;1;-1;0;0;0;0;0;0;0;0;0;-1;0.00000000;0.00000000;0.00000000;0.00000000;0.00000000;0.00000000;0.00000000;
43148951;76.7;23.6;23.5;20.7;20.6;20.5;0;0;0;0;0;-0.001;0.0173;0;1.3352;0;23;95;118.8;0;56;0.024;-0.049;43148922;0.0173;0;1.3352;0;0.54;204.014;0;0;0;0.161;0.666;1;-1;0;0;0;0;0;0;0;0;0;-1;0.00000000;0.00000000;0.00000000;0.00000000;0.00000000;0.00000000;0.00000000;
43148984;76.7;23.6;23.4;20.7;20.6;20.5;0;0;0;0;0;-0.001;0.0173;0;1.3352;0;23;95;118.8;0;56;0.027;-0.049;43148951;0.0173;0;1.3352;0;0.54;204.009;0;0;0;0.161;0.666;1;-1;0;0;0;0;0;0;0;0;0;-1;0.00000000;0.00000000;0.00000000;0.00000000;0.00000000;0.00000000;0.00000000;
43149025;76.7;23.6;23.6;20.7;20.6;20.5;0;0;0;0;0;-0.001;0.0173;0;1.3352;0;23;95;118.8;0;56;0.018;-0.049;43148986;0.0173;0;1.3352;0;0.54;204.004;0;0;0;0.161;0.666;1;-1;0;0;0;0;0;0;0;0;0;-1;0.00000000;0.00000000;0.00000000;0.00000000;0.00000000;0.00000000;0.00000000;
43149092;76.7;23.6;23.6;20.7;20.5;20.6;0;0;0;0;0;-0.001;0.0173;0;1.3352;0;23;95;118.8;0;56;0.027;-0.049;43149026;0.0173;0;1.3352;0;0.54;204;0;0;0;0.161;0.666;1;-1;0;0;0;0;0;0;0;0;0;-1;0.00000000;0.00000000;0.00000000;0.00000000;0.00000000;0.00000000;0.00000000;
43149105;76.7;23.6;23.6;20.7;20.6;20.6;0;0;0;0;0;-0.001;0.0173;0;1.3352;0;23;95;118.8;0;56;0.025;-0.049;43149093;0.0173;0;1.3352;0;0.54;203.99;0;0;0;0.161;0.666;1;-1;0;0;0;0;0;0;0;0;0;-1;0.00000000;0.00000000;0.00000000;0.00000000;0.00000000;0.00000000;0.00000000;
43149136;76.7;23.6;23.5;20.7;20.6;20.6;0;0;0;0;0;-0.001;0.0173;0;1.3352;0;23;95;118.8;0;56;0.018;-0.049;43149105;0.0173;0;1.3352;0;0.54;203.986;0;0;0;0.161;0.666;1;-1;0;0;0;0;0;0;0;0;0;-1;0.00000000;0.00000000;0.00000000;0.00000000;0.00000000;0.00000000;0.00000000;
43149167;76.7;23.6;23.6;20.8;20.6;20.6;0;0;0;0;0;-0.001;0.0173;0;1.3352;0;23;95;118.8;0;56;0.02;-0.049;43149136;0.0173;0;1.3352;0;0.54;203.982;0;0;0;0.161;0.666;1;-1;0;0;0;0;0;0;0;0;0;-1;0.00000000;0.00000000;0.00000000;0.00000000;0.00000000;0.00000000;0.00000000;
43149199;76.7;23.6;23.6;20.7;20.6;20.5;0;0;0;0;0;-0.001;0.0173;0;1.3352;0;23;95;118.8;0;56;0.025;-0.05;43149168;0.0173;0;1.3352;0;0.54;203.978;0;0;0;0.161;0.666;1;-1;0;0;0;0;0;0;0;0;0;-1;0.00000000;0.00000000;0.00000000;0.00000000;0.00000000;0.00000000;0.00000000;
43149235;76.7;23.6;23.6;20.8;20.6;20.5;0;0;0;0;0;-0.001;0.0173;0;1.3352;0;23;95;118.8;0;56;0.023;-0.05;43149199;0.0173;0;1.3352;0;0.54;203.973;0;0;0;0.161;0.666;1;-1;0;0;0;0;0;0;0;0;0;-1;0.00000000;0.00000000;0.00000000;0.00000000;0.00000000;0.00000000;0.00000000;
43149286;76.7;23.6;23.7;20.8;20.6;20.6;0;0;0;0;0;-0.001;0.0173;0;1.3352;0;23;95;118.8;0;56;0.017;-0.049;43149236;0.0173;0;1.3352;0;0.54;203.967;0;0;0;0.161;0.666;1;-1;0;0;0;0;0;0;0;0;0;-1;0.00000000;0.00000000;0.00000000;0.00000000;0.00000000;0.00000000;0.00000000;
43149296;76.7;23.6;23.6;20.7;20.5;20.6;0;0;0;0;0;-0.001;0.0173;0;1.3352;0;23;95;118.8;0;56;0.018;-0.048;43149286;0.0173;0;1.3352;0;0.54;203.963;0;0;0;0.161;0.666;1;-1;0;0;0;0;0;0;0;0;0;-1;0.00000000;0.00000000;0.00000000;0.00000000;0.00000000;0.00000000;0.00000000;
43149327;76.7;23.6;23.5;20.7;20.6;20.6;0;0;0;0;0;-0.001;0.0173;0;1.3352;0;23;95;118.8;0;56;0.011;-0.05;43149297;0.0173;0;1.3352;0;0.54;203.96;0;0;0;0.161;0.666;1;-1;0;0;0;0;0;0;0;0;0;-1;0.00000000;0.00000000;0.00000000;0.00000000;0.00000000;0.00000000;0.00000000;
43149356;76.7;23.6;23.6;20.8;20.6;20.5;0;0;0;0;0;-0.001;0.0173;0;1.3352;0;23;95;118.8;0;56;0.025;-0.049;43149327;0.0173;0;1.3352;0;0.54;203.957;0;0;0;0.161;0.666;1;-1;0;0;0;0;0;0;0;0;0;-1;0.00000000;0.00000000;0.00000000;0.00000000;0.00000000;0.00000000;0.00000000;
43149387;76.7;23.6;23.6;20.8;20.6;20.5;0;0;0;0;0;-0.001;0.0173;0;1.3352;0;23;95;118.8;0;56;0.03;-0.048;43149356;0.0173;0;1.3352;0;0.54;203.955;0;0;0;0.161;0.666;1;-1;0;0;0;0;0;0;0;0;0;-1;0.00000000;0.00000000;0.00000000;0.00000000;0.00000000;0.00000000;0.00000000;
43149419;76.7;23.6;23.6;20.8;20.6;20.5;0;0;0;0;0;-0.001;0.0173;0;1.3352;0;23;95;118.8;0;56;0.016;-0.05;43149387;0.0173;0;1.3352;0;0.54;203.952;0;0;0;0.161;0.666;1;-1;0;0;0;0;0;0;0;0;0;-1;0.00000000;0.00000000;0.00000000;0.00000000;0.00000000;0.00000000;0.00000000;
43149478;76.7;23.6;23.6;20.8;20.6;20.5;0;0;0;0;0;-0.001;0.0173;0;1.3352;0;23;95;118.8;0;56;0.023;-0.049;43149419;0.0173;0;1.3352;0;0.54;203.948;0;0;0;0.161;0.666;1;-1;0;0;0;0;0;0;0;0;0;-1;0.00000000;0.00000000;0.00000000;0.00000000;0.00000000;0.00000000;0.00000000;
43149511;76.7;23.6;23.5;20.8;20.6;20.5;0;0;0;0;0;-0.001;0.0173;0;1.3352;0;23;95;118.8;0;56;0.027;-0.049;43149479;0.0173;0;1.3352;0;0.54;203.938;0;0;0;0.161;0.666;1;-1;0;0;0;0;0;0;0;0;0;-1;0.00000000;0.00000000;0.00000000;0.00000000;0.00000000;0.00000000;0.00000000;
43149541;76.7;23.6;23.6;20.8;20.6;20.5;0;0;0;0;0;-0.001;0.0173;0;1.3352;0;23;95;118.8;0;56;0.026;-0.05;43149511;0.0173;0;1.3352;0;0.54;203.935;0;0;0;0.161;0.666;1;-1;0;0;0;0;0;0;0;0;0;-1;0.00000000;0.00000000;0.00000000;0.00000000;0.00000000;0.00000000;0.00000000;
43149581;76.7;23.6;23.6;20.7;20.6;20.5;0;0;0;0;0;-0.001;0.0173;0;1.3352;0;23;95;118.8;0;56;0.028;-0.049;43149541;0.0173;0;1.3352;0;0.54;203.93;0;0;0;0.161;0.666;1;-1;0;0;0;0;0;0;0;0;0;-1;0.00000000;0.00000000;0.00000000;0.00000000;0.00000000;0.00000000;0.00000000;
43149619;76.7;23.6;23.6;20.8;20.6;20.6;0;0;0;0;0;-0.002;0.0173;0;1.3352;0;23;95;118.8;0;56;0.021;-0.049;43149581;0.0173;0;1.3352;0;0.54;203.923;0;0;0;0.161;0.666;1;-1;0;0;0;0;0;0;0;0;0;-1;0.00000000;0.00000000;0.00000000;0.00000000;0.00000000;0.00000000;0.00000000;
43149692;76.7;23.6;23.6;20.8;20.6;20.6;0;0;0;0;0;-0.001;0.0173;0;1.3352;0;23;95;118.8;0;56;0.018;-0.049;43149621;0.0173;0;1.3352;0;0.54;203.918;0;0;0;0.161;0.666;1;-1;0;0;0;0;0;0;0;0;0;-1;0.00000000;0.00000000;0.00000000;0.00000000;0.00000000;0.00000000;0.00000000;
43149731;76.7;23.6;23.5;20.8;20.6;20.5;0;0;0;0;0;-0.001;0.0173;0;1.3352;0;23;95;118.8;0;56;0.026;-0.049;43149693;0.0173;0;1.3352;0;0.54;203.913;0;0;0;0.161;0.666;1;-1;0;0;0;0;0;0;0;0;0;-1;0.00000000;0.00000000;0.00000000;0.00000000;0.00000000;0.00000000;0.00000000;
43149765;76.7;23.6;23.7;20.7;20.6;20.5;0;0;0;0;0;-0.001;0.0173;0;1.3352;0;23;95;118.8;0;56;0.021;-0.049;43149731;0.0173;0;1.3352;0;0.54;203.909;0;0;0;0.161;0.666;1;-1;0;0;0;0;0;0;0;0;0;-1;0.00000000;0.00000000;0.00000000;0.00000000;0.00000000;0.00000000;0.00000000;
43149799;76.7;23.6;23.6;20.7;20.6;20.5;0;0;0;0;0;-0.001;0.0173;0;1.3352;0;23;95;118.8;0;56;0.021;-0.048;43149765;0.0173;0;1.3352;0;0.54;203.907;0;0;0;0.161;0.666;1;-1;0;0;0;0;0;0;0;0;0;-1;0.00000000;0.00000000;0.00000000;0.00000000;0.00000000;0.00000000;0.00000000;
43149831;76.7;23.6;23.6;20.7;20.6;20.6;0;0;0;0;0;-0.001;0.0173;0;1.3352;0;23;95;118.8;0;56;0.018;-0.048;43149799;0.0173;0;1.3352;0;0.54;203.904;0;0;0;0.161;0.666;1;-1;0;0;0;0;0;0;0;0;0;-1;0.00000000;0.00000000;0.00000000;0.00000000;0.00000000;0.00000000;0.00000000;
43149863;76.7;23.6;23.6;20.8;20.6;20.6;0;0;0;0;0;-0.001;0.0173;0;1.3352;0;23;95;118.8;0;56;0.026;-0.049;43149831;0.0173;0;1.3352;0;0.54;203.901;0;0;0;0.161;0.666;1;-1;0;0;0;0;0;0;0;0;0;-1;0.00000000;0.00000000;0.00000000;0.00000000;0.00000000;0.00000000;0.00000000;
43149906;76.7;23.6;23.6;20.7;20.6;20.6;0;0;0;0;0;-0.001;0.0173;0;1.3352;0;23;95;118.8;0;56;0.023;-0.049;43149863;0.0173;0;1.3352;0;0.54;203.9;0;0;0;0.161;0.666;1;-1;0;0;0;0;0;0;0;0;0;-1;0.00000000;0.00000000;0.00000000;0.00000000;0.00000000;0.00000000;0.00000000;
43149946;76.7;23.6;23.5;20.7;20.6;20.6;0;0;0;0;0;-0.001;0.0173;0;1.3352;0;23;95;118.8;0;56;0.021;-0.049;43149906;0.0173;0;1.3352;0;0.54;203.897;0;0;0;0.161;0.666;1;-1;0;0;0;0;0;0;0;0;0;-1;0.00000000;0.00000000;0.00000000;0.00000000;0.00000000;0.00000000;0.00000000;
43149970;76.7;23.6;23.6;20.7;20.6;20.6;0;0;0;0;0;-0.001;0.0173;0;1.3352;0;23;95;118.8;0;56;0.013;-0.05;43149947;0.0173;0;1.3352;0;0.54;203.893;0;0;0;0.161;0.666;1;-1;0;0;0;0;0;0;0;0;0;-1;0.00000000;0.00000000;0.00000000;0.00000000;0.00000000;0.00000000;0.00000000;
43150039;76.7;23.6;23.5;20.8;20.6;20.6;0;0;0;0;0;-0.001;0.0173;0;1.3352;0;23;95;118.8;0;56;0.022;-0.049;43149970;0.0173;0;1.3352;0;0.54;203.888;0;0;0;0.161;0.666;1;-1;0;0;0;0;0;0;0;0;0;-1;0.00000000;0.00000000;0.00000000;0.00000000;0.00000000;0.00000000;0.00000000;
43150061;76.7;23.6;23.6;20.8;20.6;20.5;0;0;0;0;0;-0.001;0.0173;0;1.3352;0;23;95;118.8;0;56;0.024;-0.049;43150039;0.0173;0;1.3352;0;0.54;203.883;0;0;0;0.161;0.666;1;-1;0;0;0;0;0;0;0;0;0;-1;0.00000000;0.00000000;0.00000000;0.00000000;0.00000000;0.00000000;0.00000000;
43150076;76.7;23.5;23.6;20.8;20.6;20.5;0;0;0;0;0;-0.001;0.0173;0;1.3352;0;23;95;118.8;0;56;0.022;-0.049;43150061;0.0173;0;1.3352;0;0.54;203.878;0;0;0;0.161;0.666;1;-1;0;0;0;0;0;0;0;0;0;-1;0.00000000;0.00000000;0.00000000;0.00000000;0.00000000;0.00000000;0.00000000;
43150106;76.7;23.5;23.6;20.7;20.5;20.5;0;0;0;0;0;-0.001;0.0173;0;1.3352;0;23;95;118.8;0;56;0.019;-0.049;43150077;0.0173;0;1.3352;0;0.54;203.877;0;0;0;0.161;0.666;1;-1;0;0;0;0;0;0;0;0;0;-1;0.00000000;0.00000000;0.00000000;0.00000000;0.00000000;0.00000000;0.00000000;
43150136;76.7;23.5;23.6;20.7;20.5;20.5;0;0;0;0;0;-0.001;0.0173;0;1.3352;0;23;95;118.8;0;56;0.022;-0.05;43150106;0.0173;0;1.3352;0;0.54;203.875;0;0;0;0.161;0.666;1;-1;0;0;0;0;0;0;0;0;0;-1;0.00000000;0.00000000;0.00000000;0.00000000;0.00000000;0.00000000;0.00000000;
43150167;76.7;23.6;23.6;20.7;20.6;20.5;0;0;0;0;0;-0.001;0.0173;0;1.3352;0;23;95;118.8;0;56;0.019;-0.049;43150136;0.0173;0;1.3352;0;0.54;203.873;0;0;0;0.161;0.666;1;-1;0;0;0;0;0;0;0;0;0;-1;0.00000000;0.00000000;0.00000000;0.00000000;0.00000000;0.00000000;0.00000000;
43150202;76.7;23.6;23.6;20.7;20.5;20.5;0;0;0;0;0;-0.001;0.0173;0;1.3352;0;23;95;118.8;0;56;0.019;-0.05;43150167;0.0173;0;1.3352;0;0.54;203.872;0;0;0;0.161;0.666;1;-1;0;0;0;0;0;0;0;0;0;-1;0.00000000;0.00000000;0.00000000;0.00000000;0.00000000;0.00000000;0.00000000;
43150257;76.7;23.6;23.6;20.7;20.6;20.5;0;0;0;0;0;-0.001;0.0173;0;1.3352;0;23;95;118.8;0;56;0.026;-0.049;43150202;0.0173;0;1.3352;0;0.54;203.869;0;0;0;0.161;0.666;1;-1;0;0;0;0;0;0;0;0;0;-1;0.00000000;0.00000000;0.00000000;0.00000000;0.00000000;0.00000000;0.00000000;
43150289;76.7;23.6;23.6;20.7;20.6;20.5;0;0;0;0;0;-0.001;0.0173;0;1.3352;0;23;95;118.8;0;56;0.016;-0.05;43150257;0.0173;0;1.3352;0;0.54;203.869;0;0;0;0.161;0.666;1;-1;0;0;0;0;0;0;0;0;0;-1;0.00000000;0.00000000;0.00000000;0.00000000;0.00000000;0.00000000;0.00000000;
43150322;76.7;23.6;23.5;20.7;20.6;20.5;0;0;0;0;0;-0.001;0.0173;0;1.3352;0;23;95;118.8;0;56;0.025;-0.049;43150289;0.0173;0;1.3352;0;0.54;203.867;0;0;0;0.161;0.666;1;-1;0;0;0;0;0;0;0;0;0;-1;0.00000000;0.00000000;0.00000000;0.00000000;0.00000000;0.00000000;0.00000000;
43150357;76.7;23.6;23.5;20.8;20.6;20.5;0;0;0;0;0;-0.001;0.0173;0;1.3352;0;23;95;118.8;0;56;0.022;-0.049;43150323;0.0173;0;1.3352;0;0.54;203.866;0;0;0;0.161;0.666;1;-1;0;0;0;0;0;0;0;0;0;-1;0.00000000;0.00000000;0.00000000;0.00000000;0.00000000;0.00000000;0.00000000;
43150388;76.7;23.5;23.5;20.7;20.5;20.5;0;0;0;0;0;-0.001;0.0173;0;1.3352;0;23;95;118.8;0;56;0.026;-0.049;43150357;0.0173;0;1.3352;0;0.54;203.865;0;0;0;0.161;0.666;1;-1;0;0;0;0;0;0;0;0;0;-1;0.00000000;0.00000000;0.00000000;0.00000000;0.00000000;0.00000000;0.00000000;
43150449;76.7;23.6;23.5;20.8;20.6;20.4;0;0;0;0;0;-0.001;0.0173;0;1.3352;0;23;95;118.8;0;56;0.02;-0.05;43150389;0.0173;0;1.3352;0;0.54;203.865;0;0;0;0.161;0.666;1;-1;0;0;0;0;0;0;0;0;0;-1;0.00000000;0.00000000;0.00000000;0.00000000;0.00000000;0.00000000;0.00000000;
43150482;76.7;23.6;23.5;20.7;20.6;20.5;0;0;0;0;0;-0.001;0.0173;0;1.3352;0;23;95;118.8;0;56;0.022;-0.05;43150449;0.0173;0;1.3352;0;0.54;203.865;0;0;0;0.161;0.666;1;-1;0;0;0;0;0;0;0;0;0;-1;0.00000000;0.00000000;0.00000000;0.00000000;0.00000000;0.00000000;0.00000000;
43150513;76.7;23.6;23.6;20.7;20.5;20.5;0;0;0;0;0;-0.001;0.0173;0;1.3352;0;23;95;118.8;0;56;0.028;-0.05;43150482;0.0173;0;1.3352;0;0.54;203.865;0;0;0;0.161;0.666;1;-1;0;0;0;0;0;0;0;0;0;-1;0.00000000;0.00000000;0.00000000;0.00000000;0.00000000;0.00000000;0.00000000;
43150541;76.7;23.6;23.6;20.7;20.5;20.5;0;0;0;0;0;-0.001;0.0173;0;1.3352;0;23;95;118.8;0;56;0.025;-0.049;43150513;0.0173;0;1.3352;0;0.54;203.865;0;0;0;0.161;0.666;1;-1;0;0;0;0;0;0;0;0;0;-1;0.00000000;0.00000000;0.00000000;0.00000000;0.00000000;0.00000000;0.00000000;
43150575;76.7;23.5;23.5;20.7;20.6;20.5;0;0;0;0;0;-0.001;0.0173;0;1.3352;0;23;95;118.8;0;56;0.022;-0.049;43150541;0.0173;0;1.3352;0;0.54;203.866;0;0;0;0.161;0.666;1;-1;0;0;0;0;0;0;0;0;0;-1;0.00000000;0.00000000;0.00000000;0.00000000;0.00000000;0.00000000;0.00000000;
43150607;76.7;23.5;23.6;20.7;20.5;20.5;0;0;0;0;0;-0.001;0.0173;0;1.3352;0;23;95;118.8;0;56;0.018;-0.049;43150575;0.0173;0;1.3352;0;0.54;203.866;0;0;0;0.161;0.666;1;-1;0;0;0;0;0;0;0;0;0;-1;0.00000000;0.00000000;0.00000000;0.00000000;0.00000000;0.00000000;0.00000000;
43150662;76.7;23.5;23.5;20.7;20.6;20.6;0;0;0;0;0;-0.001;0.0173;0;1.3352;0;23;95;118.8;0;56;0.023;-0.049;43150607;0.0173;0;1.3352;0;0.54;203.867;0;0;0;0.161;0.666;1;-1;0;0;0;0;0;0;0;0;0;-1;0.00000000;0.00000000;0.00000000;0.00000000;0.00000000;0.00000000;0.00000000;
43150698;76.7;23.5;23.5;20.7;20.6;20.6;0;0;0;0;0;-0.001;0.0173;0;1.3352;0;23;95;118.8;0;56;0.021;-0.05;43150663;0.0173;0;1.3352;0;0.54;203.867;0;0;0;0.161;0.666;1;-1;0;0;0;0;0;0;0;0;0;-1;0.00000000;0.00000000;0.00000000;0.00000000;0.00000000;0.00000000;0.00000000;
43150721;76.7;23.5;23.6;20.8;20.6;20.5;0;0;0;0;0;-0.001;0.0173;0;1.3352;0;23;95;118.8;0;56;0.022;-0.049;43150698;0.0173;0;1.3352;0;0.54;203.868;0;0;0;0.161;0.666;1;-1;0;0;0;0;0;0;0;0;0;-1;0.00000000;0.00000000;0.00000000;0.00000000;0.00000000;0.00000000;0.00000000;
43150761;76.7;23.5;23.5;20.7;20.5;20.5;0;0;0;0;0;-0.001;0.0173;0;1.3352;0;23;95;118.8;0;56;0.023;-0.048;43150721;0.0173;0;1.3352;0;0.54;203.87;0;0;0;0.161;0.666;1;-1;0;0;0;0;0;0;0;0;0;-1;0.00000000;0.00000000;0.00000000;0.00000000;0.00000000;0.00000000;0.00000000;
43150794;76.7;23.5;23.5;20.7;20.5;20.5;0;0;0;0;0;-0.001;0.0173;0;1.3352;0;23;95;118.8;0;56;0.024;-0.049;43150761;0.0173;0;1.3352;0;0.54;203.871;0;0;0;0.161;0.666;1;-1;0;0;0;0;0;0;0;0;0;-1;0.00000000;0.00000000;0.00000000;0.00000000;0.00000000;0.00000000;0.00000000;
43150817;76.7;23.5;23.5;20.7;20.5;20.5;0;0;0;0;0;-0.001;0.0173;0;1.3352;0;23;95;118.8;0;56;0.014;-0.05;43150795;0.0173;0;1.3352;0;0.54;203.874;0;0;0;0.161;0.666;1;-1;0;0;0;0;0;0;0;0;0;-1;0.00000000;0.00000000;0.00000000;0.00000000;0.00000000;0.00000000;0.00000000;
43150877;76.7;23.5;23.6;20.8;20.6;20.5;0;0;0;0;0;-0.001;0.0173;0;1.3352;0;23;95;118.8;0;56;0.02;-0.049;43150818;0.0173;0;1.3352;0;0.54;203.878;0;0;0;0.161;0.666;1;-1;0;0;0;0;0;0;0;0;0;-1;0.00000000;0.00000000;0.00000000;0.00000000;0.00000000;0.00000000;0.00000000;
43150889;76.7;23.5;23.6;20.7;20.6;20.5;0;0;0;0;0;-0.001;0.0173;0;1.3352;0;23;95;118.8;0;56;0.015;-0.05;43150878;0.0173;0;1.3352;0;0.54;203.88;0;0;0;0.161;0.666;1;-1;0;0;0;0;0;0;0;0;0;-1;0.00000000;0.00000000;0.00000000;0.00000000;0.00000000;0.00000000;0.00000000;
43150917;76.7;23.5;23.6;20.6;20.4;20.5;0;0;0;0;0;-0.001;0.0173;0;1.3352;0;23;95;118.8;0;56;0.024;-0.049;43150890;0.0173;0;1.3352;0;0.54;203.88;0;0;0;0.161;0.666;1;-1;0;0;0;0;0;0;0;0;0;-1;0.00000000;0.00000000;0.00000000;0.00000000;0.00000000;0.00000000;0.00000000;
43150948;76.7;23.5;23.6;20.7;20.5;20.5;0;0;0;0;0;-0.001;0.0173;0;1.3352;0;23;95;118.8;0;56;0.015;-0.049;43150918;0.0173;0;1.3352;0;0.54;203.881;0;0;0;0.161;0.666;1;-1;0;0;0;0;0;0;0;0;0;-1;0.00000000;0.00000000;0.00000000;0.00000000;0.00000000;0.00000000;0.00000000;
43150983;76.7;23.5;23.5;20.7;20.6;20.5;0;0;0;0;0;-0.002;0.0173;0;1.3352;0;23;95;118.8;0;56;0.031;-0.048;43150948;0.0173;0;1.3352;0;0.54;203.885;0;0;0;0.161;0.666;1;-1;0;0;0;0;0;0;0;0;0;-1;0.00000000;0.00000000;0.00000000;0.00000000;0.00000000;0.00000000;0.00000000;
43151013;76.7;23.5;23.6;20.8;20.6;20.5;0;0;0;0;0;-0.001;0.0173;0;1.3352;0;23;95;118.8;0;56;0.024;-0.049;43150984;0.0173;0;1.3352;0;0.54;203.888;0;0;0;0.161;0.666;1;-1;0;0;0;0;0;0;0;0;0;-1;0.00000000;0.00000000;0.00000000;0.00000000;0.00000000;0.00000000;0.00000000;
43151047;76.7;23.5;23.5;20.7;20.6;20.5;0;0;0;0;0;-0.001;0.0173;0;1.3352;0;23;95;118.8;0;56;0.025;-0.049;43151013;0.0173;0;1.3352;0;0.54;203.889;0;0;0;0.161;0.666;1;-1;0;0;0;0;0;0;0;0;0;-1;0.00000000;0.00000000;0.00000000;0.00000000;0.00000000;0.00000000;0.00000000;
43151080;76.7;23.5;23.5;20.7;20.5;20.5;0;0;0;0;0;-0.001;0.0173;0;1.3352;0;23;95;118.8;0;56;0.018;-0.049;43151047;0.0173;0;1.3352;0;0.54;203.891;0;0;0;0.161;0.666;1;-1;0;0;0;0;0;0;0;0;0;-1;0.00000000;0.00000000;0.00000000;0.00000000;0.00000000;0.00000000;0.00000000;
43151112;76.7;23.5;23.6;20.7;20.5;20.5;0;0;0;0;0;-0.001;0.0173;0;1.3352;0;23;95;118.8;0;56;0.028;-0.049;43151080;0.0173;0;1.3352;0;0.54;203.894;0;0;0;0.161;0.666;1;-1;0;0;0;0;0;0;0;0;0;-1;0.00000000;0.00000000;0.00000000;0.00000000;0.00000000;0.00000000;0.00000000;
43151156;76.7;23.5;23.6;20.7;20.6;20.5;0;0;0;0;0;-0.001;0.0173;0;1.3352;0;23;95;118.8;0;56;0.021;-0.049;43151113;0.0173;0;1.3352;0;0.54;203.895;0;0;0;0.161;0.666;1;-1;0;0;0;0;0;0;0;0;0;-1;0.00000000;0.00000000;0.00000000;0.00000000;0.00000000;0.00000000;0.00000000;
43151214;76.7;23.5;23.5;20.7;20.6;20.5;0;0;0;0;0;-0.001;0.0173;0;1.3352;0;23;95;118.8;0;56;0.025;-0.049;43151156;0.0173;0;1.3352;0;0.54;203.901;0;0;0;0.161;0.666;1;-1;0;0;0;0;0;0;0;0;0;-1;0.00000000;0.00000000;0.00000000;0.00000000;0.00000000;0.00000000;0.00000000;
43151228;76.7;23.5;23.5;20.7;20.5;20.5;0;0;0;0;0;-0.001;0.0173;0;1.3352;0;23;95;118.8;0;56;0.022;-0.049;43151215;0.0173;0;1.3352;0;0.54;203.906;0;0;0;0.161;0.666;1;-1;0;0;0;0;0;0;0;0;0;-1;0.00000000;0.00000000;0.00000000;0.00000000;0.00000000;0.00000000;0.00000000;
43151260;76.7;23.5;23.5;20.8;20.6;20.5;0;0;0;0;0;-0.001;0.0173;0;1.3352;0;23;95;118.8;0;56;0.023;-0.05;43151228;0.0173;0;1.3352;0;0.54;203.911;0;0;0;0.161;0.666;1;-1;0;0;0;0;0;0;0;0;0;-1;0.00000000;0.00000000;0.00000000;0.00000000;0.00000000;0.00000000;0.00000000;
43151291;76.7;23.5;23.5;20.7;20.6;20.5;0;0;0;0;0;-0.001;0.0173;0;1.3352;0;23;95;118.8;0;56;0.022;-0.049;43151260;0.0173;0;1.3352;0;0.54;203.916;0;0;0;0.161;0.666;1;-1;0;0;0;0;0;0;0;0;0;-1;0.00000000;0.00000000;0.00000000;0.00000000;0.00000000;0.00000000;0.00000000;
43151323;76.7;23.5;23.6;20.7;20.6;20.6;0;0;0;0;0;-0.001;0.0173;0;1.3352;0;23;95;118.8;0;56;0.021;-0.049;43151291;0.0173;0;1.3352;0;0.54;203.919;0;0;0;0.161;0.666;1;-1;0;0;0;0;0;0;0;0;0;-1;0.00000000;0.00000000;0.00000000;0.00000000;0.00000000;0.00000000;0.00000000;
43151355;76.7;23.5;23.5;20.7;20.6;20.5;0;0;0;0;0;-0.001;0.0173;0;1.3352;0;23;95;118.8;0;56;0.019;-0.049;43151325;0.0173;0;1.3352;0;0.54;203.922;0;0;0;0.161;0.666;1;-1;0;0;0;0;0;0;0;0;0;-1;0.00000000;0.00000000;0.00000000;0.00000000;0.00000000;0.00000000;0.00000000;
43151415;76.7;23.5;23.5;20.7;20.6;20.5;0;0;0;0;0;-0.001;0.0173;0;1.3352;0;23;95;118.8;0;56;0.02;-0.049;43151355;0.0173;0;1.3352;0;0.54;203.925;0;0;0;0.161;0.666;1;-1;0;0;0;0;0;0;0;0;0;-1;0.00000000;0.00000000;0.00000000;0.00000000;0.00000000;0.00000000;0.00000000;
43151447;76.7;23.5;23.5;20.7;20.6;20.5;0;0;0;0;0;-0.001;0.0173;0;1.3352;0;23;95;118.8;0;56;0.029;-0.049;43151415;0.0173;0;1.3352;0;0.54;203.931;0;0;0;0.161;0.666;1;-1;0;0;0;0;0;0;0;0;0;-1;0.00000000;0.00000000;0.00000000;0.00000000;0.00000000;0.00000000;0.00000000;
43151481;76.7;23.5;23.5;20.7;20.5;20.5;0;0;0;0;0;-0.001;0.0173;0;1.3352;0;23;95;118.8;0;56;0.022;-0.049;43151447;0.0173;0;1.3352;0;0.54;203.934;0;0;0;0.161;0.666;1;-1;0;0;0;0;0;0;0;0;0;-1;0.00000000;0.00000000;0.00000000;0.00000000;0.00000000;0.00000000;0.00000000;
43151510;76.7;23.5;23.5;20.7;20.5;20.5;0;0;0;0;0;-0.001;0.0173;0;1.3352;0;23;95;118.8;0;56;0.016;-0.05;43151481;0.0173;0;1.3352;0;0.54;203.938;0;0;0;0.161;0.666;1;-1;0;0;0;0;0;0;0;0;0;-1;0.00000000;0.00000000;0.00000000;0.00000000;0.00000000;0.00000000;0.00000000;
43151539;76.7;23.5;23.6;20.7;20.6;20.5;0;0;0;0;0;-0.001;0.0173;0;1.3352;0;23;95;118.8;0;56;0.022;-0.049;43151510;0.0173;0;1.3352;0;0.54;203.939;0;0;0;0.161;0.666;1;-1;0;0;0;0;0;0;0;0;0;-1;0.00000000;0.00000000;0.00000000;0.00000000;0.00000000;0.00000000;0.00000000;
43151572;76.7;23.5;23.6;20.7;20.6;20.5;0;0;0;0;0;-0.001;0.0173;0;1.3352;0;23;95;118.8;0;56;0.017;-0.049;43151539;0.0173;0;1.3352;0;0.54;203.943;0;0;0;0.161;0.666;1;-1;0;0;0;0;0;0;0;0;0;-1;0.00000000;0.00000000;0.00000000;0.00000000;0.00000000;0.00000000;0.00000000;
43151625;76.7;23.5;23.5;20.7;20.6;20.6;0;0;0;0;0;-0.001;0.0173;0;1.3352;0;23;95;118.8;0;56;0.018;-0.049;43151572;0.0173;0;1.3352;0;0.54;203.946;0;0;0;0.161;0.666;1;-1;0;0;0;0;0;0;0;0;0;-1;0.00000000;0.00000000;0.00000000;0.00000000;0.00000000;0.00000000;0.00000000;
43151636;76.7;23.5;23.5;20.7;20.5;20.6;0;0;0;0;0;-0.001;0.0173;0;1.3352;0;23;95;118.8;0;56;0.018;-0.051;43151626;0.0173;0;1.3352;0;0.54;203.95;0;0;0;0.161;0.666;1;-1;0;0;0;0;0;0;0;0;0;-1;0.00000000;0.00000000;0.00000000;0.00000000;0.00000000;0.00000000;0.00000000;
43151666;76.7;23.5;23.5;20.6;20.4;20.5;0;0;0;0;0;-0.002;0.0173;0;1.3352;0;23;95;118.8;0;56;0.023;-0.049;43151636;0.0173;0;1.3352;0;0.54;203.951;0;0;0;0.161;0.666;1;-1;0;0;0;0;0;0;0;0;0;-1;0.00000000;0.00000000;0.00000000;0.00000000;0.00000000;0.00000000;0.00000000;
43151697;76.7;23.5;23.5;20.7;20.6;20.5;0;0;0;0;0;-0.001;0.0173;0;1.3352;0;23;95;118.8;0;56;0.026;-0.049;43151666;0.0173;0;1.3352;0;0.54;203.954;0;0;0;0.161;0.666;1;-1;0;0;0;0;0;0;0;0;0;-1;0.00000000;0.00000000;0.00000000;0.00000000;0.00000000;0.00000000;0.00000000;
43151730;76.7;23.5;23.5;20.7;20.5;20.6;0;0;0;0;0;-0.001;0.0173;0;1.3352;0;23;95;118.8;0;56;0.013;-0.049;43151697;0.0173;0;1.3352;0;0.54;203.957;0;0;0;0.161;0.666;1;-1;0;0;0;0;0;0;0;0;0;-1;0.00000000;0.00000000;0.00000000;0.00000000;0.00000000;0.00000000;0.00000000;
43151778;76.7;23.5;23.5;20.7;20.6;20.6;0;0;0;0;0;-0.001;0.0173;0;1.3352;0;23;95;118.8;0;56;0.02;-0.049;43151731;0.0173;0;1.3352;0;0.54;203.96;0;0;0;0.161;0.666;1;-1;0;0;0;0;0;0;0;0;0;-1;0.00000000;0.00000000;0.00000000;0.00000000;0.00000000;0.00000000;0.00000000;
43151822;76.7;23.5;23.5;20.7;20.5;20.5;0;0;0;0;0;-0.001;0.0173;0;1.3352;0;23;95;118.8;0;56;0.017;-0.05;43151779;0.0173;0;1.3352;0;0.54;203.963;0;0;0;0.161;0.666;1;-1;0;0;0;0;0;0;0;0;0;-1;0.00000000;0.00000000;0.00000000;0.00000000;0.00000000;0.00000000;0.00000000;
43151843;76.7;23.5;23.5;20.7;20.5;20.5;0;0;0;0;0;-0.001;0.0173;0;1.3352;0;23;95;118.8;0;56;0.019;-0.048;43151823;0.0173;0;1.3352;0;0.54;203.967;0;0;0;0.161;0.666;1;-1;0;0;0;0;0;0;0;0;0;-1;0.00000000;0.00000000;0.00000000;0.00000000;0.00000000;0.00000000;0.00000000;
43151882;76.7;23.5;23.5;20.7;20.5;20.5;0;0;0;0;0;-0.001;0.0173;0;1.3352;0;23;95;118.8;0;56;0.019;-0.049;43151845;0.0173;0;1.3352;0;0.54;203.97;0;0;0;0.161;0.666;1;-1;0;0;0;0;0;0;0;0;0;-1;0.00000000;0.00000000;0.00000000;0.00000000;0.00000000;0.00000000;0.00000000;
43151913;76.7;23.5;23.5;20.8;20.5;20.5;0;0;0;0;0;-0.001;0.0173;0;1.3352;0;23;95;118.8;0;56;0.017;-0.049;43151882;0.0173;0;1.3352;0;0.54;203.971;0;0;0;0.161;0.666;1;-1;0;0;0;0;0;0;0;0;0;-1;0.00000000;0.00000000;0.00000000;0.00000000;0.00000000;0.00000000;0.00000000;
43151945;76.7;23.5;23.5;20.7;20.5;20.5;0;0;0;0;0;-0.001;0.0173;0;1.3352;0;23;95;118.8;0;56;0.016;-0.049;43151913;0.0173;0;1.3352;0;0.54;203.974;0;0;0;0.161;0.666;1;-1;0;0;0;0;0;0;0;0;0;-1;0.00000000;0.00000000;0.00000000;0.00000000;0.00000000;0.00000000;0.00000000;
43151978;76.7;23.5;23.5;20.7;20.5;20.5;0;0;0;0;0;-0.002;0.0173;0;1.3352;0;23;95;118.8;0;56;0.025;-0.049;43151946;0.0173;0;1.3352;0;0.54;203.976;0;0;0;0.161;0.666;1;-1;0;0;0;0;0;0;0;0;0;-1;0.00000000;0.00000000;0.00000000;0.00000000;0.00000000;0.00000000;0.00000000;
43152034;76.7;23.5;23.5;20.8;20.6;20.4;0;0;0;0;0;-0.001;0.0173;0;1.3352;0;23;95;118.8;0;56;0.019;-0.049;43151979;0.0173;0;1.3352;0;0.54;203.977;0;0;0;0.161;0.666;1;-1;0;0;0;0;0;0;0;0;0;-1;0.00000000;0.00000000;0.00000000;0.00000000;0.00000000;0.00000000;0.00000000;
43152045;76.7;23.5;23.6;20.7;20.6;20.5;0;0;0;0;0;-0.001;0.0173;0;1.3352;0;23;95;118.8;0;56;0.027;-0.049;43152034;0.0173;0;1.3352;0;0.54;203.979;0;0;0;0.161;0.666;1;-1;0;0;0;0;0;0;0;0;0;-1;0.00000000;0.00000000;0.00000000;0.00000000;0.00000000;0.00000000;0.00000000;
43152074;76.7;23.5;23.5;20.7;20.5;20.5;0;0;0;0;0;-0.001;0.0173;0;1.3352;0;23;95;118.8;0;56;0.021;-0.049;43152045;0.0173;0;1.3352;0;0.54;203.98;0;0;0;0.161;0.666;1;-1;0;0;0;0;0;0;0;0;0;-1;0.00000000;0.00000000;0.00000000;0.00000000;0.00000000;0.00000000;0.00000000;
43152103;76.7;23.5;23.5;20.6;20.5;20.4;0;0;0;0;0;-0.001;0.0173;0;1.3352;0;23;95;118.8;0;56;0.011;-0.05;43152074;0.0173;0;1.3352;0;0.54;203.984;0;0;0;0.161;0.666;1;-1;0;0;0;0;0;0;0;0;0;-1;0.00000000;0.00000000;0.00000000;0.00000000;0.00000000;0.00000000;0.00000000;
43152140;76.7;23.5;23.6;20.7;20.5;20.5;0;0;0;0;0;-0.001;0.0173;0;1.3352;0;23;95;118.8;0;56;0.019;-0.049;43152103;0.0173;0;1.3352;0;0.54;203.987;0;0;0;0.161;0.666;1;-1;0;0;0;0;0;0;0;0;0;-1;0.00000000;0.00000000;0.00000000;0.00000000;0.00000000;0.00000000;0.00000000;
43152169;76.7;23.5;23.5;20.7;20.5;20.5;0;0;0;0;0;-0.001;0.0173;0;1.3352;0;23;95;118.8;0;56;0.025;-0.049;43152142;0.0173;0;1.3352;0;0.54;203.988;0;0;0;0.161;0.666;1;-1;0;0;0;0;0;0;0;0;0;-1;0.00000000;0.00000000;0.00000000;0.00000000;0.00000000;0.00000000;0.00000000;
43152198;76.7;23.5;23.5;20.7;20.5;20.5;0;0;0;0;0;-0.001;0.0173;0;1.3352;0;23;95;118.8;0;56;0.027;-0.049;43152171;0.0173;0;1.3352;0;0.54;203.99;0;0;0;0.161;0.666;1;-1;0;0;0;0;0;0;0;0;0;-1;0.00000000;0.00000000;0.00000000;0.00000000;0.00000000;0.00000000;0.00000000;
43152230;76.7;23.5;23.5;20.7;20.6;20.6;0;0;0;0;0;-0.001;0.0173;0;1.3352;0;23;95;118.8;0;56;0.015;-0.048;43152199;0.0173;0;1.3352;0;0.54;203.991;0;0;0;0.161;0.666;1;-1;0;0;0;0;0;0;0;0;0;-1;0.00000000;0.00000000;0.00000000;0.00000000;0.00000000;0.00000000;0.00000000;
43152332;76.7;23.5;23.5;20.7;20.5;20.6;0;0;0;0;0;-0.001;0.0173;0;1.3352;0;23;95;118.8;0;56;0.019;-0.049;43152231;0.0173;0;1.3352;0;0.54;203.992;0;0;0;0.161;0.666;1;-1;0;0;0;0;0;0;0;0;0;-1;0.00000000;0.00000000;0.00000000;0.00000000;0.00000000;0.00000000;0.00000000;
43152391;76.7;23.5;23.4;20.6;20.5;20.6;0;0;0;0;0;-0.001;0.0173;0;1.3352;0;23;95;118.8;0;56;0.024;-0.049;43152333;0.0173;0;1.3352;0;0.54;203.994;0;0;0;0.161;0.666;1;-1;0;0;0;0;0;0;0;0;0;-1;0.00000000;0.00000000;0.00000000;0.00000000;0.00000000;0.00000000;0.00000000;
43152420;76.7;23.5;23.5;20.7;20.5;20.6;0;0;0;0;0;-0.001;0.0173;0;1.3352;0;23;95;118.8;0;56;0.022;-0.05;43152392;0.0173;0;1.3352;0;0.54;203.995;0;0;0;0.161;0.666;1;-1;0;0;0;0;0;0;0;0;0;-1;0.00000000;0.00000000;0.00000000;0.00000000;0.00000000;0.00000000;0.00000000;
43152449;76.7;23.5;23.5;20.7;20.5;20.6;0;0;0;0;0;-0.001;0.0173;0;1.3352;0;23;95;118.8;0;56;0.025;-0.049;43152420;0.0173;0;1.3352;0;0.54;203.997;0;0;0;0.161;0.666;1;-1;0;0;0;0;0;0;0;0;0;-1;0.00000000;0.00000000;0.00000000;0.00000000;0.00000000;0.00000000;0.00000000;
43152482;76.7;23.5;23.5;20.7;20.6;20.6;0;0;0;0;0;-0.001;0.0173;0;1.3352;0;23;95;118.8;0;56;0.023;-0.049;43152451;0.0173;0;1.3352;0;0.54;203.999;0;0;0;0.161;0.666;1;-1;0;0;0;0;0;0;0;0;0;-1;0.00000000;0.00000000;0.00000000;0.00000000;0.00000000;0.00000000;0.00000000;
43152515;76.7;23.5;23.5;20.7;20.6;20.6;0;0;0;0;0;-0.001;0.0173;0;1.3352;0;23;95;118.8;0;56;0.025;-0.049;43152482;0.0173;0;1.3352;0;0.54;203.999;0;0;0;0.161;0.666;1;-1;0;0;0;0;0;0;0;0;0;-1;0.00000000;0.00000000;0.00000000;0.00000000;0.00000000;0.00000000;0.00000000;
43152572;76.7;23.5;23.5;20.6;20.5;20.5;0;0;0;0;0;-0.001;0.0173;0;1.3352;0;23;95;118.8;0;56;0.02;-0.049;43152516;0.0173;0;1.3352;0;0.54;203.999;0;0;0;0.161;0.666;1;-1;0;0;0;0;0;0;0;0;0;-1;0.00000000;0.00000000;0.00000000;0.00000000;0.00000000;0.00000000;0.00000000;
43152603;76.7;23.5;23.5;20.6;20.5;20.4;0;0;0;0;0;-0.001;0.0173;0;1.3352;0;23;95;118.8;0;56;0.023;-0.048;43152572;0.0173;0;1.3352;0;0.54;204;0;0;0;0.161;0.666;1;-1;0;0;0;0;0;0;0;0;0;-1;0.00000000;0.00000000;0.00000000;0.00000000;0.00000000;0.00000000;0.00000000;
43152635;76.7;23.5;23.5;20.7;20.6;20.4;0;0;0;0;0;-0.001;0.0173;0;1.3352;0;23;95;118.8;0;56;0.016;-0.049;43152604;0.0173;0;1.3352;0;0.54;204.001;0;0;0;0.161;0.666;1;-1;0;0;0;0;0;0;0;0;0;-1;0.00000000;0.00000000;0.00000000;0.00000000;0.00000000;0.00000000;0.00000000;
43152667;76.7;23.5;23.6;20.7;20.6;20.4;0;0;0;0;0;-0.001;0.0173;0;1.3352;0;23;95;118.8;0;56;0.028;-0.049;43152635;0.0173;0;1.3352;0;0.54;204.001;0;0;0;0.161;0.666;1;-1;0;0;0;0;0;0;0;0;0;-1;0.00000000;0.00000000;0.00000000;0.00000000;0.00000000;0.00000000;0.00000000;
43152698;76.7;23.5;23.5;20.7;20.5;20.4;0;0;0;0;0;-0.001;0.0173;0;1.3352;0;23;95;118.8;0;56;0.024;-0.049;43152668;0.0173;0;1.3352;0;0.54;204.001;0;0;0;0.161;0.666;1;-1;0;0;0;0;0;0;0;0;0;-1;0.00000000;0.00000000;0.00000000;0.00000000;0.00000000;0.00000000;0.00000000;
43152729;76.7;23.5;23.5;20.6;20.5;20.3;0;0;0;0;0;-0.001;0.0173;0;1.3352;0;23;95;118.8;0;56;0.021;-0.049;43152698;0.0173;0;1.3352;0;0.54;204.002;0;0;0;0.161;0.666;1;-1;0;0;0;0;0;0;0;0;0;-1;0.00000000;0.00000000;0.00000000;0.00000000;0.00000000;0.00000000;0.00000000;
43152789;76.7;23.5;23.5;20.6;20.4;20.5;0;0;0;0;0;-0.001;0.0173;0;1.3352;0;23;95;118.8;0;56;0.016;-0.049;43152731;0.0173;0;1.3352;0;0.54;204.002;0;0;0;0.161;0.666;1;-1;0;0;0;0;0;0;0;0;0;-1;0.00000000;0.00000000;0.00000000;0.00000000;0.00000000;0.00000000;0.00000000;
43152821;76.7;23.5;23.6;20.7;20.6;20.4;0;0;0;0;0;-0.001;0.0173;0;1.3352;0;23;95;118.8;0;56;0.03;-0.049;43152789;0.0173;0;1.3352;0;0.54;204.005;0;0;0;0.161;0.666;1;-1;0;0;0;0;0;0;0;0;0;-1;0.00000000;0.00000000;0.00000000;0.00000000;0.00000000;0.00000000;0.00000000;
43152858;76.7;23.5;23.5;20.7;20.6;20.4;0;0;0;0;0;-0.001;0.0173;0;1.3352;0;23;95;118.8;0;56;0.023;-0.049;43152822;0.0173;0;1.3352;0;0.54;204.006;0;0;0;0.161;0.666;1;-1;0;0;0;0;0;0;0;0;0;-1;0.00000000;0.00000000;0.00000000;0.00000000;0.00000000;0.00000000;0.00000000;
43152878;76.7;23.5;23.5;20.7;20.6;20.4;0;0;0;0;0;-0.002;0.0173;0;1.3352;0;23;95;118.8;0;56;0.022;-0.049;43152859;0.0173;0;1.3352;0;0.54;204.006;0;0;0;0.161;0.666;1;-1;0;0;0;0;0;0;0;0;0;-1;0.00000000;0.00000000;0.00000000;0.00000000;0.00000000;0.00000000;0.00000000;
43152918;76.7;23.5;23.5;20.7;20.6;20.4;0;0;0;0;0;-0.001;0.0173;0;1.3352;0;23;95;118.8;0;56;0.024;-0.049;43152878;0.0173;0;1.3352;0;0.54;204.007;0;0;0;0.161;0.666;1;-1;0;0;0;0;0;0;0;0;0;-1;0.00000000;0.00000000;0.00000000;0.00000000;0.00000000;0.00000000;0.00000000;
43152937;76.7;23.5;23.4;20.7;20.5;20.4;0;0;0;0;0;-0.001;0.0173;0;1.3352;0;23;95;118.8;0;56;0.018;-0.049;43152918;0.0173;0;1.3352;0;0.54;204.007;0;0;0;0.161;0.666;1;-1;0;0;0;0;0;0;0;0;0;-1;0.00000000;0.00000000;0.00000000;0.00000000;0.00000000;0.00000000;0.00000000;
43152997;76.7;23.5;23.4;20.7;20.5;20.4;0;0;0;0;0;-0.001;0.0173;0;1.3352;0;23;95;118.8;0;56;0.022;-0.049;43152937;0.0173;0;1.3352;0;0.54;204.007;0;0;0;0.161;0.666;1;-1;0;0;0;0;0;0;0;0;0;-1;0.00000000;0.00000000;0.00000000;0.00000000;0.00000000;0.00000000;0.00000000;
43153007;76.7;23.5;23.5;20.6;20.4;20.5;0;0;0;0;0;-0.001;0.0173;0;1.3352;0;23;95;118.8;0;56;0.019;-0.049;43152998;0.0173;0;1.3352;0;0.54;204.008;0;0;0;0.161;0.666;1;-1;0;0;0;0;0;0;0;0;0;-1;0.00000000;0.00000000;0.00000000;0.00000000;0.00000000;0.00000000;0.00000000;
43153044;76.7;23.5;23.5;20.6;20.4;20.5;0;0;0;0;0;-0.001;0.0173;0;1.3352;0;23;95;118.8;0;56;0.025;-0.049;43153009;0.0173;0;1.3352;0;0.54;204.008;0;0;0;0.161;0.666;1;-1;0;0;0;0;0;0;0;0;0;-1;0.00000000;0.00000000;0.00000000;0.00000000;0.00000000;0.00000000;0.00000000;
43153072;76.7;23.5;23.4;20.7;20.5;20.5;0;0;0;0;0;-0.001;0.0173;0;1.3352;0;23;95;118.8;0;56;0.022;-0.049;43153044;0.0173;0;1.3352;0;0.54;204.008;0;0;0;0.161;0.666;1;-1;0;0;0;0;0;0;0;0;0;-1;0.00000000;0.00000000;0.00000000;0.00000000;0.00000000;0.00000000;0.00000000;
43153109;76.7;23.5;23.5;20.7;20.5;20.4;0;0;0;0;0;-0.001;0.0173;0;1.3352;0;23;95;118.8;0;56;0.024;-0.049;43153072;0.0173;0;1.3352;0;0.54;204.008;0;0;0;0.161;0.666;1;-1;0;0;0;0;0;0;0;0;0;-1;0.00000000;0.00000000;0.00000000;0.00000000;0.00000000;0.00000000;0.00000000;
43153136;76.7;23.5;23.5;20.7;20.5;20.5;0;0;0;0;0;-0.001;0.0173;0;1.3352;0;23;95;118.8;0;56;0.015;-0.05;43153109;0.0173;0;1.3352;0;0.54;204.005;0;0;0;0.161;0.666;1;-1;0;0;0;0;0;0;0;0;0;-1;0.00000000;0.00000000;0.00000000;0.00000000;0.00000000;0.00000000;0.00000000;
43153197;76.7;23.5;23.5;20.7;20.5;20.5;0;0;0;0;0;-0.001;0.0173;0;1.3352;0;23;95;118.8;0;56;0.021;-0.049;43153137;0.0173;0;1.3352;0;0.54;204.005;0;0;0;0.161;0.666;1;-1;0;0;0;0;0;0;0;0;0;-1;0.00000000;0.00000000;0.00000000;0.00000000;0.00000000;0.00000000;0.00000000;
43153229;76.7;23.5;23.5;20.6;20.4;20.4;0;0;0;0;0;-0.001;0.0173;0;1.3352;0;23;95;118.8;0;56;0.021;-0.049;43153197;0.0173;0;1.3352;0;0.54;204.005;0;0;0;0.161;0.666;1;-1;0;0;0;0;0;0;0;0;0;-1;0.00000000;0.00000000;0.00000000;0.00000000;0.00000000;0.00000000;0.00000000;
43153259;76.7;23.5;23.6;20.7;20.6;20.5;0;0;0;0;0;-0.001;0.0173;0;1.3352;0;23;95;118.8;0;56;0.022;-0.049;43153230;0.0173;0;1.3352;0;0.54;204.006;0;0;0;0.161;0.666;1;-1;0;0;0;0;0;0;0;0;0;-1;0.00000000;0.00000000;0.00000000;0.00000000;0.00000000;0.00000000;0.00000000;
43153290;76.7;23.5;23.6;20.6;20.5;20.4;0;0;0;0;0;-0.001;0.0173;0;1.3352;0;23;95;118.8;0;56;0.021;-0.049;43153260;0.0173;0;1.3352;0;0.54;204.006;0;0;0;0.161;0.666;1;-1;0;0;0;0;0;0;0;0;0;-1;0.00000000;0.00000000;0.00000000;0.00000000;0.00000000;0.00000000;0.00000000;
43153324;76.7;23.5;23.5;20.7;20.5;20.4;0;0;0;0;0;-0.001;0.0173;0;1.3352;0;23;95;118.8;0;56;0.017;-0.05;43153291;0.0173;0;1.3352;0;0.54;204.004;0;0;0;0.161;0.666;1;-1;0;0;0;0;0;0;0;0;0;-1;0.00000000;0.00000000;0.00000000;0.00000000;0.00000000;0.00000000;0.00000000;
43153352;76.7;23.5;23.5;20.6;20.5;20.4;0;0;0;0;0;-0.001;0.0173;0;1.3352;0;23;95;118.8;0;56;0.019;-0.049;43153324;0.0173;0;1.3352;0;0.54;204.013;0;0;0;0.161;0.666;1;-1;0;0;0;0;0;0;0;0;0;-1;0.00000000;0.00000000;0.00000000;0.00000000;0.00000000;0.00000000;0.00000000;
43153389;76.7;23.5;23.5;20.6;20.5;20.4;0;0;0;0;0;-0.001;0.0173;0;1.3352;0;23;95;118.8;0;56;0.022;-0.049;43153353;0.0173;0;1.3352;0;0.54;204.022;0;0;0;0.161;0.666;1;-1;0;0;0;0;0;0;0;0;0;-1;0.00000000;0.00000000;0.00000000;0.00000000;0.00000000;0.00000000;0.00000000;
43153417;76.7;23.5;23.5;20.6;20.5;20.4;0;0;0;0;0;-0.001;0.0173;0;1.3352;0;23;95;118.8;0;56;0.019;-0.049;43153389;0.0173;0;1.3352;0;0.54;204.022;0;0;0;0.161;0.666;1;-1;0;0;0;0;0;0;0;0;0;-1;0.00000000;0.00000000;0.00000000;0.00000000;0.00000000;0.00000000;0.00000000;
43153450;76.7;23.5;23.5;20.6;20.5;20.5;0;0;0;0;0;-0.001;0.0173;0;1.3352;0;23;95;118.8;0;56;0.022;-0.049;43153418;0.0173;0;1.3352;0;0.54;204.022;0;0;0;0.161;0.666;1;-1;0;0;0;0;0;0;0;0;0;-1;0.00000000;0.00000000;0.00000000;0.00000000;0.00000000;0.00000000;0.00000000;
43153479;76.7;23.5;23.4;20.7;20.5;20.5;0;0;0;0;0;-0.001;0.0173;0;1.3352;0;23;95;118.8;0;56;0.022;-0.049;43153450;0.0173;0;1.3352;0;0.54;204.019;0;0;0;0.161;0.666;1;-1;0;0;0;0;0;0;0;0;0;-1;0.00000000;0.00000000;0.00000000;0.00000000;0.00000000;0.00000000;0.00000000;
43153539;76.7;23.5;23.5;20.7;20.5;20.6;0;0;0;0;0;-0.001;0.0173;0;1.3352;0;23;95;118.8;0;56;0.026;-0.049;43153480;0.0173;0;1.3352;0;0.54;204.019;0;0;0;0.161;0.666;1;-1;0;0;0;0;0;0;0;0;0;-1;0.00000000;0.00000000;0.00000000;0.00000000;0.00000000;0.00000000;0.00000000;
43153549;76.7;23.5;23.5;20.7;20.5;20.6;0;0;0;0;0;-0.001;0.0173;0;1.3352;0;23;95;118.8;0;56;0.012;-0.048;43153539;0.0173;0;1.3352;0;0.54;204.014;0;0;0;0.161;0.666;1;-1;0;0;0;0;0;0;0;0;0;-1;0.00000000;0.00000000;0.00000000;0.00000000;0.00000000;0.00000000;0.00000000;
43153578;76.7;23.5;23.5;20.6;20.5;20.6;0;0;0;0;0;-0.001;0.0173;0;1.3352;0;23;95;118.8;0;56;0.032;-0.048;43153550;0.0173;0;1.3352;0;0.54;204.014;0;0;0;0.161;0.666;1;-1;0;0;0;0;0;0;0;0;0;-1;0.00000000;0.00000000;0.00000000;0.00000000;0.00000000;0.00000000;0.00000000;
43153605;76.7;23.5;23.5;20.7;20.5;20.5;0;0;0;0;0;-0.001;0.0173;0;1.3352;0;23;95;118.8;0;56;0.017;-0.048;43153578;0.0173;0;1.3352;0;0.54;204.013;0;0;0;0.161;0.666;1;-1;0;0;0;0;0;0;0;0;0;-1;0.00000000;0.00000000;0.00000000;0.00000000;0.00000000;0.00000000;0.00000000;
43153639;76.7;23.5;23.5;20.7;20.5;20.4;0;0;0;0;0;-0.001;0.0173;0;1.3352;0;23;95;118.8;0;56;0.025;-0.048;43153605;0.0173;0;1.3352;0;0.54;204.013;0;0;0;0.161;0.666;1;-1;0;0;0;0;0;0;0;0;0;-1;0.00000000;0.00000000;0.00000000;0.00000000;0.00000000;0.00000000;0.00000000;
43153669;76.7;23.5;23.5;20.7;20.5;20.4;0;0;0;0;0;-0.001;0.0173;0;1.3352;0;23;95;118.8;0;56;0.014;-0.05;43153640;0.0173;0;1.3352;0;0.54;204.012;0;0;0;0.161;0.666;1;-1;0;0;0;0;0;0;0;0;0;-1;0.00000000;0.00000000;0.00000000;0.00000000;0.00000000;0.00000000;0.00000000;
43153699;76.7;23.5;23.5;20.7;20.5;20.4;0;0;0;0;0;-0.001;0.0173;0;1.3352;0;23;95;118.8;0;56;0.01;-0.049;43153669;0.0173;0;1.3352;0;0.54;204.012;0;0;0;0.161;0.666;1;-1;0;0;0;0;0;0;0;0;0;-1;0.00000000;0.00000000;0.00000000;0.00000000;0.00000000;0.00000000;0.00000000;
43153752;76.7;23.5;23.6;20.8;20.6;20.4;0;0;0;0;0;0;0.0173;0;1.3352;0;23;95;118.8;0;56;0.025;-0.049;43153699;0.0173;0;1.3352;0;0.54;204.01;0;0;0;0.161;0.666;1;-1;0;0;0;0;0;0;0;0;0;-1;0.00000000;0.00000000;0.00000000;0.00000000;0.00000000;0.00000000;0.00000000;
43153789;76.7;23.5;23.5;20.7;20.5;20.5;0;0;0;0;0;-0.001;0.0173;0;1.3352;0;23;95;118.8;0;56;0.024;-0.048;43153753;0.0173;0;1.3352;0;0.54;204.005;0;0;0;0.161;0.666;1;-1;0;0;0;0;0;0;0;0;0;-1;0.00000000;0.00000000;0.00000000;0.00000000;0.00000000;0.00000000;0.00000000;
43153820;76.7;23.5;23.5;20.7;20.5;20.5;0;0;0;0;0;-0.001;0.0173;0;1.3352;0;23;95;118.8;0;56;0.017;-0.049;43153789;0.0173;0;1.3352;0;0.54;204.005;0;0;0;0.161;0.666;1;-1;0;0;0;0;0;0;0;0;0;-1;0.00000000;0.00000000;0.00000000;0.00000000;0.00000000;0.00000000;0.00000000;
43153851;76.7;23.5;23.5;20.6;20.5;20.5;0;0;0;0;0;-0.001;0.0173;0;1.3352;0;23;95;118.8;0;56;0.014;-0.049;43153821;0.0173;0;1.3352;0;0.54;204.005;0;0;0;0.161;0.666;1;-1;0;0;0;0;0;0;0;0;0;-1;0.00000000;0.00000000;0.00000000;0.00000000;0.00000000;0.00000000;0.00000000;
43153889;76.7;23.5;23.5;20.6;20.5;20.5;0;0;0;0;0;-0.001;0.0173;0;1.3352;0;23;95;118.8;0;56;0.026;-0.049;43153851;0.0173;0;1.3352;0;0.54;204;0;0;0;0.161;0.666;1;-1;0;0;0;0;0;0;0;0;0;-1;0.00000000;0.00000000;0.00000000;0.00000000;0.00000000;0.00000000;0.00000000;
43153919;76.7;23.5;23.5;20.6;20.5;20.5;0;0;0;0;0;-0.001;0.0173;0;1.3352;0;23;95;118.8;0;56;0.028;-0.049;43153889;0.0173;0;1.3352;0;0.54;204;0;0;0;0.161;0.666;1;-1;0;0;0;0;0;0;0;0;0;-1;0.00000000;0.00000000;0.00000000;0.00000000;0.00000000;0.00000000;0.00000000;
43153971;76.7;23.5;23.5;20.6;20.5;20.5;0;0;0;0;0;-0.001;0.0173;0;1.3352;0;23;95;118.8;0;56;0.018;-0.049;43153919;0.0173;0;1.3352;0;0.54;203.998;0;0;0;0.161;0.666;1;-1;0;0;0;0;0;0;0;0;0;-1;0.00000000;0.00000000;0.00000000;0.00000000;0.00000000;0.00000000;0.00000000;
43154008;76.7;23.5;23.5;20.7;20.5;20.5;0;0;0;0;0;-0.001;0.0173;0;1.3352;0;23;95;118.8;0;56;0.028;-0.049;43153972;0.0173;0;1.3352;0;0.54;203.996;0;0;0;0.161;0.666;1;-1;0;0;0;0;0;0;0;0;0;-1;0.00000000;0.00000000;0.00000000;0.00000000;0.00000000;0.00000000;0.00000000;
43154040;76.7;23.5;23.5;20.7;20.5;20.5;0;0;0;0;0;-0.002;0.0173;0;1.3352;0;23;95;118.8;0;56;0.019;-0.049;43154008;0.0173;0;1.3352;0;0.54;203.994;0;0;0;0.161;0.666;1;-1;0;0;0;0;0;0;0;0;0;-1;0.00000000;0.00000000;0.00000000;0.00000000;0.00000000;0.00000000;0.00000000;
43154072;76.7;23.5;23.5;20.7;20.6;20.5;0;0;0;0;0;-0.001;0.0173;0;1.3352;0;23;95;118.8;0;56;0.027;-0.049;43154040;0.0173;0;1.3352;0;0.54;203.993;0;0;0;0.161;0.666;1;-1;0;0;0;0;0;0;0;0;0;-1;0.00000000;0.00000000;0.00000000;0.00000000;0.00000000;0.00000000;0.00000000;
43154106;76.7;23.5;23.5;20.6;20.5;20.4;0;0;0;0;0;-0.001;0.0173;0;1.3352;0;23;95;118.8;0;56;0.029;-0.048;43154073;0.0173;0;1.3352;0;0.54;203.991;0;0;0;0.161;0.666;1;-1;0;0;0;0;0;0;0;0;0;-1;0.00000000;0.00000000;0.00000000;0.00000000;0.00000000;0.00000000;0.00000000;
43154125;76.7;23.5;23.5;20.5;20.4;20.4;0;0;0;0;0;-0.001;0.0173;0;1.3352;0;23;95;118.8;0;56;0.028;-0.048;43154106;0.0173;0;1.3352;0;0.54;203.989;0;0;0;0.161;0.666;1;-1;0;0;0;0;0;0;0;0;0;-1;0.00000000;0.00000000;0.00000000;0.00000000;0.00000000;0.00000000;0.00000000;
43154183;76.7;23.4;23.4;20.7;20.5;20.5;0;0;0;0;0;-0.001;0.0173;0;1.3352;0;23;95;118.8;0;56;0.024;-0.048;43154125;0.0173;0;1.3352;0;0.54;203.986;0;0;0;0.161;0.666;1;-1;0;0;0;0;0;0;0;0;0;-1;0.00000000;0.00000000;0.00000000;0.00000000;0.00000000;0.00000000;0.00000000;
43154195;76.7;23.4;23.5;20.7;20.5;20.5;0;0;0;0;0;-0.001;0.0173;0;1.3352;0;23;95;118.8;0;56;0.016;-0.049;43154184;0.0173;0;1.3352;0;0.54;203.979;0;0;0;0.161;0.666;1;-1;0;0;0;0;0;0;0;0;0;-1;0.00000000;0.00000000;0.00000000;0.00000000;0.00000000;0.00000000;0.00000000;
43154230;76.7;23.5;23.5;20.6;20.5;20.5;0;0;0;0;0;-0.001;0.0173;0;1.3352;0;23;95;118.8;0;56;0.012;-0.049;43154196;0.0173;0;1.3352;0;0.54;203.976;0;0;0;0.161;0.666;1;-1;0;0;0;0;0;0;0;0;0;-1;0.00000000;0.00000000;0.00000000;0.00000000;0.00000000;0.00000000;0.00000000;
43154259;76.7;23.5;23.5;20.7;20.5;20.4;0;0;0;0;0;-0.001;0.0173;0;1.3352;0;23;95;118.8;0;56;0.016;-0.049;43154230;0.0173;0;1.3352;0;0.54;203.974;0;0;0;0.161;0.666;1;-1;0;0;0;0;0;0;0;0;0;-1;0.00000000;0.00000000;0.00000000;0.00000000;0.00000000;0.00000000;0.00000000;
43154289;76.7;23.5;23.5;20.7;20.5;20.5;0;0;0;0;0;-0.001;0.0173;0;1.3352;0;23;95;118.8;0;56;0.02;-0.049;43154259;0.0173;0;1.3352;0;0.54;203.972;0;0;0;0.161;0.666;1;-1;0;0;0;0;0;0;0;0;0;-1;0.00000000;0.00000000;0.00000000;0.00000000;0.00000000;0.00000000;0.00000000;
43154322;76.7;23.4;23.4;20.7;20.5;20.5;0;0;0;0;0;-0.001;0.0173;0;1.3352;0;23;95;118.8;0;56;0.023;-0.049;43154290;0.0173;0;1.3352;0;0.54;203.97;0;0;0;0.161;0.666;1;-1;0;0;0;0;0;0;0;0;0;-1;0.00000000;0.00000000;0.00000000;0.00000000;0.00000000;0.00000000;0.00000000;
43154373;76.7;23.5;23.5;20.6;20.5;20.5;0;0;0;0;0;-0.001;0.0173;0;1.3352;0;23;95;118.8;0;56;0.018;-0.049;43154323;0.0173;0;1.3352;0;0.54;203.965;0;0;0;0.161;0.666;1;-1;0;0;0;0;0;0;0;0;0;-1;0.00000000;0.00000000;0.00000000;0.00000000;0.00000000;0.00000000;0.00000000;
43154386;76.7;23.5;23.5;20.6;20.5;20.5;0;0;0;0;0;-0.001;0.0173;0;1.3352;0;23;95;118.8;0;56;0.015;-0.049;43154374;0.0173;0;1.3352;0;0.54;203.961;0;0;0;0.161;0.666;1;-1;0;0;0;0;0;0;0;0;0;-1;0.00000000;0.00000000;0.00000000;0.00000000;0.00000000;0.00000000;0.00000000;
43154419;76.7;23.4;23.5;20.6;20.5;20.5;0;0;0;0;0;-0.001;0.0173;0;1.3352;0;23;95;118.8;0;56;0.02;-0.049;43154386;0.0173;0;1.3352;0;0.54;203.961;0;0;0;0.161;0.666;1;-1;0;0;0;0;0;0;0;0;0;-1;0.00000000;0.00000000;0.00000000;0.00000000;0.00000000;0.00000000;0.00000000;
43154448;76.7;23.5;23.5;20.7;20.5;20.5;0;0;0;0;0;-0.001;0.0173;0;1.3352;0;23;95;118.8;0;56;0.015;-0.049;43154420;0.0173;0;1.3352;0;0.54;203.958;0;0;0;0.161;0.666;1;-1;0;0;0;0;0;0;0;0;0;-1;0.00000000;0.00000000;0.00000000;0.00000000;0.00000000;0.00000000;0.00000000;
43154479;76.7;23.5;23.5;20.6;20.4;20.5;0;0;0;0;0;-0.001;0.0173;0;1.3352;0;23;95;118.8;0;56;0.018;-0.048;43154449;0.0173;0;1.3352;0;0.54;203.955;0;0;0;0.161;0.666;1;-1;0;0;0;0;0;0;0;0;0;-1;0.00000000;0.00000000;0.00000000;0.00000000;0.00000000;0.00000000;0.00000000;
43154513;76.7;23.4;23.5;20.6;20.4;20.5;0;0;0;0;0;-0.001;0.0173;0;1.3352;0;23;95;118.8;0;56;0.028;-0.049;43154479;0.0173;0;1.3352;0;0.54;203.954;0;0;0;0.161;0.666;1;-1;0;0;0;0;0;0;0;0;0;-1;0.00000000;0.00000000;0.00000000;0.00000000;0.00000000;0.00000000;0.00000000;
43154545;76.7;23.4;23.5;20.6;20.4;20.5;0;0;0;0;0;-0.001;0.0173;0;1.3352;0;23;95;118.8;0;56;0.028;-0.048;43154513;0.0173;0;1.3352;0;0.54;203.952;0;0;0;0.161;0.666;1;-1;0;0;0;0;0;0;0;0;0;-1;0.00000000;0.00000000;0.00000000;0.00000000;0.00000000;0.00000000;0.00000000;
43154580;76.7;23.4;23.5;20.6;20.5;20.5;0;0;0;0;0;-0.001;0.0173;0;1.3352;0;23;95;118.8;0;56;0.028;-0.049;43154546;0.0173;0;1.3352;0;0.54;203.948;0;0;0;0.161;0.666;1;-1;0;0;0;0;0;0;0;0;0;-1;0.00000000;0.00000000;0.00000000;0.00000000;0.00000000;0.00000000;0.00000000;
43154613;76.7;23.5;23.5;20.6;20.5;20.6;0;0;0;0;0;-0.001;0.0173;0;1.3352;0;23;95;118.8;0;56;0.021;-0.05;43154581;0.0173;0;1.3352;0;0.54;203.947;0;0;0;0.161;0.666;1;-1;0;0;0;0;0;0;0;0;0;-1;0.00000000;0.00000000;0.00000000;0.00000000;0.00000000;0.00000000;0.00000000;
43154646;76.7;23.4;23.5;20.7;20.5;20.6;0;0;0;0;0;-0.001;0.0173;0;1.3352;0;23;95;118.8;0;56;0.024;-0.049;43154613;0.0173;0;1.3352;0;0.54;203.945;0;0;0;0.161;0.666;1;-1;0;0;0;0;0;0;0;0;0;-1;0.00000000;0.00000000;0.00000000;0.00000000;0.00000000;0.00000000;0.00000000;
43154705;76.7;23.4;23.5;20.6;20.5;20.6;0;0;0;0;0;-0.001;0.0173;0;1.3352;0;23;95;118.8;0;56;0.025;-0.049;43154646;0.0173;0;1.3352;0;0.54;203.942;0;0;0;0.161;0.666;1;-1;0;0;0;0;0;0;0;0;0;-1;0.00000000;0.00000000;0.00000000;0.00000000;0.00000000;0.00000000;0.00000000;
43154728;76.7;23.4;23.5;20.7;20.6;20.6;0;0;0;0;0;-0.002;0.0173;0;1.3352;0;23;95;118.8;0;56;0.026;-0.048;43154706;0.0173;0;1.3352;0;0.54;203.94;0;0;0;0.161;0.666;1;-1;0;0;0;0;0;0;0;0;0;-1;0.00000000;0.00000000;0.00000000;0.00000000;0.00000000;0.00000000;0.00000000;
43154752;76.7;23.4;23.4;20.6;20.4;20.7;0;0;0;0;0;-0.001;0.0173;0;1.3352;0;23;95;118.8;0;56;0.024;-0.049;43154729;0.0173;0;1.3352;0;0.54;203.938;0;0;0;0.161;0.666;1;-1;0;0;0;0;0;0;0;0;0;-1;0.00000000;0.00000000;0.00000000;0.00000000;0.00000000;0.00000000;0.00000000;
43154781;76.7;23.4;23.4;20.6;20.5;20.6;0;0;0;0;0;-0.001;0.0173;0;1.3352;0;23;95;118.8;0;56;0.022;-0.049;43154753;0.0173;0;1.3352;0;0.54;203.937;0;0;0;0.161;0.666;1;-1;0;0;0;0;0;0;0;0;0;-1;0.00000000;0.00000000;0.00000000;0.00000000;0.00000000;0.00000000;0.00000000;
43154820;76.7;23.4;23.5;20.6;20.4;20.7;0;0;0;0;0;-0.001;0.0173;0;1.3352;0;23;95;118.8;0;56;0.023;-0.048;43154782;0.0173;0;1.3352;0;0.54;203.936;0;0;0;0.161;0.666;1;-1;0;0;0;0;0;0;0;0;0;-1;0.00000000;0.00000000;0.00000000;0.00000000;0.00000000;0.00000000;0.00000000;
43154858;76.7;23.4;23.4;20.6;20.5;20.7;0;0;0;0;0;-0.001;0.0173;0;1.3352;0;23;95;118.8;0;56;0.018;-0.049;43154821;0.0173;0;1.3352;0;0.54;203.934;0;0;0;0.161;0.666;1;-1;0;0;0;0;0;0;0;0;0;-1;0.00000000;0.00000000;0.00000000;0.00000000;0.00000000;0.00000000;0.00000000;
43154879;76.7;23.5;23.4;20.6;20.5;20.7;0;0;0;0;0;-0.001;0.0173;0;1.3352;0;23;95;118.8;0;56;0.015;-0.05;43154859;0.0173;0;1.3352;0;0.54;203.928;0;0;0;0.161;0.666;1;-1;0;0;0;0;0;0;0;0;0;-1;0.00000000;0.00000000;0.00000000;0.00000000;0.00000000;0.00000000;0.00000000;
43154939;76.7;23.4;23.5;20.6;20.5;20.6;0;0;0;0;0;-0.001;0.0173;0;1.3352;0;23;95;118.8;0;56;0.017;-0.049;43154879;0.0173;0;1.3352;0;0.54;203.925;0;0;0;0.161;0.666;1;-1;0;0;0;0;0;0;0;0;0;-1;0.00000000;0.00000000;0.00000000;0.00000000;0.00000000;0.00000000;0.00000000;
43154949;76.7;23.4;23.5;20.5;20.4;20.6;0;0;0;0;0;-0.001;0.0173;0;1.3352;0;23;95;118.8;0;56;0.026;-0.049;43154939;0.0173;0;1.3352;0;0.54;203.918;0;0;0;0.161;0.666;1;-1;0;0;0;0;0;0;0;0;0;-1;0.00000000;0.00000000;0.00000000;0.00000000;0.00000000;0.00000000;0.00000000;
43154979;76.7;23.4;23.5;20.6;20.5;20.5;0;0;0;0;0;-0.001;0.0173;0;1.3352;0;23;95;118.8;0;56;0.021;-0.049;43154949;0.0173;0;1.3352;0;0.54;203.918;0;0;0;0.161;0.666;1;-1;0;0;0;0;0;0;0;0;0;-1;0.00000000;0.00000000;0.00000000;0.00000000;0.00000000;0.00000000;0.00000000;
43155008;76.7;23.5;23.4;20.7;20.5;20.6;0;0;0;0;0;-0.001;0.0173;0;1.3352;0;23;95;118.8;0;56;0.028;-0.048;43154980;0.0173;0;1.3352;0;0.54;203.914;0;0;0;0.161;0.666;1;-1;0;0;0;0;0;0;0;0;0;-1;0.00000000;0.00000000;0.00000000;0.00000000;0.00000000;0.00000000;0.00000000;
43155039;76.7;23.5;23.5;20.6;20.5;20.5;0;0;0;0;0;-0.001;0.0173;0;1.3352;0;23;95;118.8;0;56;0.013;-0.05;43155008;0.0173;0;1.3352;0;0.54;203.912;0;0;0;0.161;0.666;1;-1;0;0;0;0;0;0;0;0;0;-1;0.00000000;0.00000000;0.00000000;0.00000000;0.00000000;0.00000000;0.00000000;
43155071;76.7;23.4;23.5;20.6;20.5;20.5;0;0;0;0;0;-0.001;0.0173;0;1.3352;0;23;95;118.8;0;56;0.02;-0.05;43155039;0.0173;0;1.3352;0;0.54;203.908;0;0;0;0.161;0.666;1;-1;0;0;0;0;0;0;0;0;0;-1;0.00000000;0.00000000;0.00000000;0.00000000;0.00000000;0.00000000;0.00000000;
43155126;76.7;23.5;23.5;20.7;20.5;20.6;0;0;0;0;0;-0.002;0.0173;0;1.3352;0;23;95;118.8;0;56;0.025;-0.049;43155073;0.0173;0;1.3352;0;0.54;203.907;0;0;0;0.161;0.666;1;-1;0;0;0;0;0;0;0;0;0;-1;0.00000000;0.00000000;0.00000000;0.00000000;0.00000000;0.00000000;0.00000000;
43155137;76.7;23.5;23.5;20.6;20.5;20.6;0;0;0;0;0;-0.001;0.0173;0;1.3352;0;23;95;118.8;0;56;0.034;-0.049;43155126;0.0173;0;1.3352;0;0.54;203.902;0;0;0;0.161;0.666;1;-1;0;0;0;0;0;0;0;0;0;-1;0.00000000;0.00000000;0.00000000;0.00000000;0.00000000;0.00000000;0.00000000;
43155165;76.7;23.4;23.5;20.7;20.5;20.6;0;0;0;0;0;-0.001;0.0173;0;1.3352;0;23;95;118.8;0;56;0.023;-0.048;43155138;0.0173;0;1.3352;0;0.54;203.902;0;0;0;0.161;0.666;1;-1;0;0;0;0;0;0;0;0;0;-1;0.00000000;0.00000000;0.00000000;0.00000000;0.00000000;0.00000000;0.00000000;
43155198;76.7;23.4;23.4;20.6;20.4;20.6;0;0;0;0;0;-0.001;0.0173;0;1.3352;0;23;95;118.8;0;56;0.018;-0.049;43155165;0.0173;0;1.3352;0;0.54;203.9;0;0;0;0.161;0.666;1;-1;0;0;0;0;0;0;0;0;0;-1;0.00000000;0.00000000;0.00000000;0.00000000;0.00000000;0.00000000;0.00000000;
43155231;76.7;23.4;23.4;20.7;20.6;20.5;0;0;0;0;0;-0.001;0.0173;0;1.3352;0;23;95;118.8;0;56;0.021;-0.05;43155198;0.0173;0;1.3352;0;0.54;203.9;0;0;0;0.161;0.666;1;-1;0;0;0;0;0;0;0;0;0;-1;0.00000000;0.00000000;0.00000000;0.00000000;0.00000000;0.00000000;0.00000000;
43155263;76.7;23.4;23.5;20.6;20.5;20.5;0;0;0;0;0;-0.001;0.0173;0;1.3352;0;23;95;118.8;0;56;0.022;-0.049;43155231;0.0173;0;1.3352;0;0.54;203.897;0;0;0;0.161;0.666;1;-1;0;0;0;0;0;0;0;0;0;-1;0.00000000;0.00000000;0.00000000;0.00000000;0.00000000;0.00000000;0.00000000;
43155321;76.7;23.4;23.4;20.6;20.5;20.5;0;0;0;0;0;-0.001;0.0173;0;1.3352;0;23;95;118.8;0;56;0.023;-0.049;43155264;0.0173;0;1.3352;0;0.54;203.891;0;0;0;0.161;0.666;1;-1;0;0;0;0;0;0;0;0;0;-1;0.00000000;0.00000000;0.00000000;0.00000000;0.00000000;0.00000000;0.00000000;
43155332;76.7;23.4;23.4;20.6;20.4;20.6;0;0;0;0;0;-0.001;0.0173;0;1.3352;0;23;95;118.8;0;56;0.012;-0.049;43155322;0.0173;0;1.3352;0;0.54;203.885;0;0;0;0.161;0.666;1;-1;0;0;0;0;0;0;0;0;0;-1;0.00000000;0.00000000;0.00000000;0.00000000;0.00000000;0.00000000;0.00000000;
43155360;76.7;23.4;23.5;20.7;20.5;20.6;0;0;0;0;0;-0.001;0.0173;0;1.3352;0;23;95;118.8;0;56;0.027;-0.049;43155332;0.0173;0;1.3352;0;0.54;203.884;0;0;0;0.161;0.666;1;-1;0;0;0;0;0;0;0;0;0;-1;0.00000000;0.00000000;0.00000000;0.00000000;0.00000000;0.00000000;0.00000000;
43155390;76.7;23.4;23.4;20.6;20.5;20.6;0;0;0;0;0;-0.001;0.0173;0;1.3352;0;23;95;118.8;0;56;0.019;-0.049;43155360;0.0173;0;1.3352;0;0.54;203.879;0;0;0;0.161;0.666;1;-1;0;0;0;0;0;0;0;0;0;-1;0.00000000;0.00000000;0.00000000;0.00000000;0.00000000;0.00000000;0.00000000;
43155417;76.7;23.4;23.4;20.6;20.5;20.6;0;0;0;0;0;-0.001;0.0173;0;1.3352;0;23;95;118.8;0;56;0.012;-0.049;43155390;0.0173;0;1.3352;0;0.54;203.877;0;0;0;0.161;0.666;1;-1;0;0;0;0;0;0;0;0;0;-1;0.00000000;0.00000000;0.00000000;0.00000000;0.00000000;0.00000000;0.00000000;
43155451;76.7;23.4;23.5;20.6;20.4;20.6;0;0;0;0;0;-0.001;0.0173;0;1.3352;0;23;95;118.8;0;56;0.022;-0.049;43155417;0.0173;0;1.3352;0;0.54;203.876;0;0;0;0.161;0.666;1;-1;0;0;0;0;0;0;0;0;0;-1;0.00000000;0.00000000;0.00000000;0.00000000;0.00000000;0.00000000;0.00000000;
43155480;76.7;23.4;23.5;20.6;20.5;20.5;0;0;0;0;0;-0.001;0.0173;0;1.3352;0;23;95;118.8;0;56;0.034;-0.048;43155452;0.0173;0;1.3352;0;0.54;203.874;0;0;0;0.161;0.666;1;-1;0;0;0;0;0;0;0;0;0;-1;0.00000000;0.00000000;0.00000000;0.00000000;0.00000000;0.00000000;0.00000000;
43155537;76.7;23.4;23.4;20.7;20.6;20.5;0;0;0;0;0;-0.001;0.0173;0;1.3352;0;23;95;118.8;0;56;0.029;-0.048;43155481;0.0173;0;1.3352;0;0.54;203.873;0;0;0;0.161;0.666;1;-1;0;0;0;0;0;0;0;0;0;-1;0.00000000;0.00000000;0.00000000;0.00000000;0.00000000;0.00000000;0.00000000;
43155571;76.7;23.5;23.5;20.6;20.4;20.5;0;0;0;0;0;-0.002;0.0173;0;1.3352;0;23;95;118.8;0;56;0.016;-0.049;43155537;0.0173;0;1.3352;0;0.54;203.868;0;0;0;0.161;0.666;1;-1;0;0;0;0;0;0;0;0;0;-1;0.00000000;0.00000000;0.00000000;0.00000000;0.00000000;0.00000000;0.00000000;
43155601;76.7;23.4;23.4;20.6;20.5;20.5;0;0;0;0;0;-0.001;0.0173;0;1.3352;0;23;95;118.8;0;56;0.031;-0.049;43155572;0.0173;0;1.3352;0;0.54;203.864;0;0;0;0.161;0.666;1;-1;0;0;0;0;0;0;0;0;0;-1;0.00000000;0.00000000;0.00000000;0.00000000;0.00000000;0.00000000;0.00000000;
43155632;76.7;23.4;23.5;20.7;20.5;20.5;0;0;0;0;0;-0.001;0.0173;0;1.3352;0;23;95;118.8;0;56;0.018;-0.049;43155601;0.0173;0;1.3352;0;0.54;203.863;0;0;0;0.161;0.666;1;-1;0;0;0;0;0;0;0;0;0;-1;0.00000000;0.00000000;0.00000000;0.00000000;0.00000000;0.00000000;0.00000000;
43155669;76.7;23.4;23.4;20.7;20.5;20.5;0;0;0;0;0;0;0.0173;0;1.3352;0;23;95;118.8;0;56;0.024;-0.049;43155632;0.0173;0;1.3352;0;0.54;203.861;0;0;0;0.161;0.666;1;-1;0;0;0;0;0;0;0;0;0;-1;0.00000000;0.00000000;0.00000000;0.00000000;0.00000000;0.00000000;0.00000000;
43155700;76.7;23.4;23.4;20.6;20.5;20.5;0;0;0;0;0;-0.001;0.0173;0;1.3352;0;23;95;118.8;0;56;0.018;-0.048;43155670;0.0173;0;1.3352;0;0.54;203.857;0;0;0;0.161;0.666;1;-1;0;0;0;0;0;0;0;0;0;-1;0.00000000;0.00000000;0.00000000;0.00000000;0.00000000;0.00000000;0.00000000;
43155729;76.7;23.4;23.4;20.6;20.5;20.5;0;0;0;0;0;-0.001;0.0173;0;1.3352;0;23;95;118.8;0;56;0.024;-0.049;43155700;0.0173;0;1.3352;0;0.54;203.854;0;0;0;0.161;0.666;1;-1;0;0;0;0;0;0;0;0;0;-1;0.00000000;0.00000000;0.00000000;0.00000000;0.00000000;0.00000000;0.00000000;
43155764;76.7;23.4;23.4;20.7;20.5;20.5;0;0;0;0;0;-0.001;0.0173;0;1.3352;0;23;95;118.8;0;56;0.029;-0.049;43155730;0.0173;0;1.3352;0;0.54;203.85;0;0;0;0.161;0.666;1;-1;0;0;0;0;0;0;0;0;0;-1;0.00000000;0.00000000;0.00000000;0.00000000;0.00000000;0.00000000;0.00000000;
43155794;76.7;23.4;23.5;20.6;20.4;20.5;0;0;0;0;0;-0.001;0.0173;0;1.3352;0;23;95;118.8;0;56;0.026;-0.049;43155764;0.0173;0;1.3352;0;0.54;203.848;0;0;0;0.161;0.666;1;-1;0;0;0;0;0;0;0;0;0;-1;0.00000000;0.00000000;0.00000000;0.00000000;0.00000000;0.00000000;0.00000000;
43155829;76.7;23.4;23.4;20.6;20.5;20.5;0;0;0;0;0;-0.001;0.0173;0;1.3352;0;23;95;118.8;0;56;0.017;-0.049;43155796;0.0173;0;1.3352;0;0.54;203.844;0;0;0;0.161;0.666;1;-1;0;0;0;0;0;0;0;0;0;-1;0.00000000;0.00000000;0.00000000;0.00000000;0.00000000;0.00000000;0.00000000;
43155885;76.7;23.4;23.4;20.7;20.5;20.5;0;0;0;0;0;-0.001;0.0173;0;1.3352;0;23;95;118.8;0;56;0.019;-0.048;43155829;0.0173;0;1.3352;0;0.54;203.839;0;0;0;0.161;0.666;1;-1;0;0;0;0;0;0;0;0;0;-1;0.00000000;0.00000000;0.00000000;0.00000000;0.00000000;0.00000000;0.00000000;
43155905;76.7;23.4;23.5;20.6;20.4;20.5;0;0;0;0;0;-0.001;0.0173;0;1.3352;0;23;95;118.8;0;56;0.022;-0.049;43155885;0.0173;0;1.3352;0;0.54;203.835;0;0;0;0.161;0.666;1;-1;0;0;0;0;0;0;0;0;0;-1;0.00000000;0.00000000;0.00000000;0.00000000;0.00000000;0.00000000;0.00000000;
