ms_today;input_voltage;temp_mos_max;temp_mos_1;temp_mos_2;temp_mos_3;temp_motor;current_motor;current_in;d_axis_current;q_axis_current;erpm;duty_cycle;amp_hours_used;amp_hours_charged;watt_hours_used;watt_hours_charged;tachometer;tachometer_abs;encoder_position;fault_code;vesc_id;d_axis_voltage;q_axis_voltage;ms_today_setup;amp_hours_setup;amp_hours_charged_setup;watt_hours_setup;watt_hours_charged_setup;battery_level;battery_wh_tot;current_in_setup;current_motor_setup;speed_meters_per_sec;tacho_meters;tacho_abs_meters;num_vescs;ms_today_imu;roll;pitch;yaw;accX;accY;accZ;gyroX;gyroY;gyroZ;gnss_posTime;gnss_lat;gnss_lon;gnss_alt;gnss_gVel;gnss_vVel;gnss_hAcc;gnss_vAcc;
44061801;76.7;23.7;23.7;21;20.7;20.6;0;0;0;0;0;0.001;0.0511;0;3.938;0;28;160;1.79999;0;56;0.031;0.044;44061688;0.0511;0;3.938;0;0.537;202.976;0;0;0;0.185;1.062;1;-1;0;0;0;0;0;0;0;0;0;-1;0.00000000;0.00000000;0.00000000;0.00000000;0.00000000;0.00000000;0.00000000;
44061885;76.7;23.7;23.7;21;20.7;20.5;0;0;0;0;0;0.001;0.0511;0;3.938;0;28;160;1.79999;0;56;0.033;0.043;44061802;0.0511;0;3.938;0;0.537;202.975;0;0;0;0.185;1.062;1;-1;0;0;0;0;0;0;0;0;0;-1;0.00000000;0.00000000;0.00000000;0.00000000;0.00000000;0.00000000;0.00000000;
44061939;76.7;23.7;23.7;21;20.7;20.5;0;0;0;0;0;0.001;0.0511;0;3.938;0;28;160;1.79999;0;56;0.034;0.04;44061885;0.0511;0;3.938;0;0.537;202.973;0;0;0;0.185;1.062;1;-1;0;0;0;0;0;0;0;0;0;-1;0.00000000;0.00000000;0.00000000;0.00000000;0.00000000;0.00000000;0.00000000;
44061961;76.7;23.7;23.8;21;20.7;20.5;0;0;0;0;0;0.001;0.0511;0;3.938;0;28;160;1.79999;0;56;0.031;0.043;44061939;0.0511;0;3.938;0;0.537;202.97;0;0;0;0.185;1.062;1;-1;0;0;0;0;0;0;0;0;0;-1;0.00000000;0.00000000;0.00000000;0.00000000;0.00000000;0.00000000;0.00000000;
44062001;76.7;23.7;23.7;20.9;20.7;20.5;0;0;0;0;0;0.001;0.0511;0;3.938;0;28;160;1.79999;0;56;0.033;0.044;44061961;0.0511;0;3.938;0;0.537;202.97;0;0;0;0.185;1.062;1;-1;0;0;0;0;0;0;0;0;0;-1;0.00000000;0.00000000;0.00000000;0.00000000;0.00000000;0.00000000;0.00000000;
44062034;76.7;23.7;23.7;21;20.7;20.5;0;0;0;0;0;0;0.0511;0;3.938;0;28;160;1.79999;0;56;0.032;0.043;44062001;0.0511;0;3.938;0;0.537;202.97;0;0;0;0.185;1.062;1;-1;0;0;0;0;0;0;0;0;0;-1;0.00000000;0.00000000;0.00000000;0.00000000;0.00000000;0.00000000;0.00000000;
44062065;76.7;23.7;23.7;20.9;20.7;20.5;0;0;0;0;0;0.001;0.0511;0;3.938;0;28;160;1.79999;0;56;0.033;0.041;44062035;0.0511;0;3.938;0;0.537;202.97;0;0;0;0.185;1.062;1;-1;0;0;0;0;0;0;0;0;0;-1;0.00000000;0.00000000;0.00000000;0.00000000;0.00000000;0.00000000;0.00000000;
44062107;76.7;23.7;23.7;20.9;20.7;20.6;0;0;0;0;0;0.001;0.0511;0;3.938;0;28;160;1.79999;0;56;0.032;0.045;44062066;0.0511;0;3.938;0;0.537;202.97;0;0;0;0.185;1.062;1;-1;0;0;0;0;0;0;0;0;0;-1;0.00000000;0.00000000;0.00000000;0.00000000;0.00000000;0.00000000;0.00000000;
44062120;76.7;23.7;23.7;21;20.8;20.5;0;0;0;0;0;0.002;0.0511;0;3.938;0;28;160;1.79999;0;56;0.029;0.05;44062107;0.0511;0;3.938;0;0.537;202.968;0;0;0;0.185;1.062;1;-1;0;0;0;0;0;0;0;0;0;-1;0.00000000;0.00000000;0.00000000;0.00000000;0.00000000;0.00000000;0.00000000;
44062148;76.7;23.7;23.7;20.9;20.7;20.6;0;0;0;0;0;0.001;0.0511;0;3.938;0;28;160;1.79999;0;56;0.035;0.041;44062121;0.0511;0;3.938;0;0.537;202.967;0;0;0;0.185;1.062;1;-1;0;0;0;0;0;0;0;0;0;-1;0.00000000;0.00000000;0.00000000;0.00000000;0.00000000;0.00000000;0.00000000;
44062182;76.7;23.7;23.7;21;20.7;20.6;0;0;0;0;0;0.001;0.0511;0;3.938;0;28;160;1.79999;0;56;0.031;0.044;44062149;0.0511;0;3.938;0;0.537;202.967;0;0;0;0.185;1.062;1;-1;0;0;0;0;0;0;0;0;0;-1;0.00000000;0.00000000;0.00000000;0.00000000;0.00000000;0.00000000;0.00000000;
44062213;76.7;23.7;23.7;21;20.7;20.6;0;0;0;0;0;0.001;0.0511;0;3.938;0;28;160;1.79999;0;56;0.032;0.045;44062183;0.0511;0;3.938;0;0.537;202.966;0;0;0;0.185;1.062;1;-1;0;0;0;0;0;0;0;0;0;-1;0.00000000;0.00000000;0.00000000;0.00000000;0.00000000;0.00000000;0.00000000;
44062247;76.7;23.7;23.7;20.9;20.7;20.6;0;0;0;0;0;0.001;0.0511;0;3.938;0;28;160;1.79999;0;56;0.035;0.039;44062213;0.0511;0;3.938;0;0.537;202.966;0;0;0;0.185;1.062;1;-1;0;0;0;0;0;0;0;0;0;-1;0.00000000;0.00000000;0.00000000;0.00000000;0.00000000;0.00000000;0.00000000;
44062277;76.7;23.7;23.7;20.9;20.7;20.5;0;0;0;0;0;0.001;0.0511;0;3.938;0;28;160;1.79999;0;56;0.034;0.04;44062247;0.0511;0;3.938;0;0.537;202.965;0;0;0;0.185;1.062;1;-1;0;0;0;0;0;0;0;0;0;-1;0.00000000;0.00000000;0.00000000;0.00000000;0.00000000;0.00000000;0.00000000;
44062311;76.7;23.7;23.7;21;20.7;20.5;0;0;0;0;0;0.001;0.0511;0;3.938;0;28;160;1.79999;0;56;0.032;0.043;44062277;0.0511;0;3.938;0;0.537;202.964;0;0;0;0.185;1.062;1;-1;0;0;0;0;0;0;0;0;0;-1;0.00000000;0.00000000;0.00000000;0.00000000;0.00000000;0.00000000;0.00000000;
44062339;76.7;23.7;23.7;21;20.8;20.5;0;0;0;0;0;0.001;0.0511;0;3.938;0;28;160;1.79999;0;56;0.03;0.045;44062311;0.0511;0;3.938;0;0.537;202.964;0;0;0;0.185;1.062;1;-1;0;0;0;0;0;0;0;0;0;-1;0.00000000;0.00000000;0.00000000;0.00000000;0.00000000;0.00000000;0.00000000;
44062369;76.7;23.7;23.7;20.9;20.7;20.5;0;0;0;0;0;0.001;0.0511;0;3.938;0;28;160;1.79999;0;56;0.027;0.052;44062340;0.0511;0;3.938;0;0.537;202.963;0;0;0;0.185;1.062;1;-1;0;0;0;0;0;0;0;0;0;-1;0.00000000;0.00000000;0.00000000;0.00000000;0.00000000;0.00000000;0.00000000;
44062403;76.7;23.7;23.7;21;20.7;20.5;0;0;0;0;0;0.001;0.0511;0;3.938;0;28;160;1.79999;0;56;0.033;0.043;44062369;0.0511;0;3.938;0;0.537;202.963;0;0;0;0.185;1.062;1;-1;0;0;0;0;0;0;0;0;0;-1;0.00000000;0.00000000;0.00000000;0.00000000;0.00000000;0.00000000;0.00000000;
44062455;76.7;23.7;23.7;21;20.7;20.5;0;0;0;0;0;0.001;0.0511;0;3.938;0;28;160;1.79999;0;56;0.031;0.046;44062403;0.0511;0;3.938;0;0.537;202.963;0;0;0;0.185;1.062;1;-1;0;0;0;0;0;0;0;0;0;-1;0.00000000;0.00000000;0.00000000;0.00000000;0.00000000;0.00000000;0.00000000;
44062491;76.7;23.7;23.8;21;20.7;20.5;0;0;0;0;0;0.001;0.0511;0;3.938;0;28;160;1.79999;0;56;0.034;0.039;44062456;0.0511;0;3.938;0;0.537;202.963;0;0;0;0.185;1.062;1;-1;0;0;0;0;0;0;0;0;0;-1;0.00000000;0.00000000;0.00000000;0.00000000;0.00000000;0.00000000;0.00000000;
44062531;76.7;23.7;23.7;21;20.7;20.5;0;0;0;0;0;0.001;0.0511;0;3.938;0;28;160;1.79999;0;56;0.038;0.033;44062491;0.0511;0;3.938;0;0.537;202.964;0;0;0;0.185;1.062;1;-1;0;0;0;0;0;0;0;0;0;-1;0.00000000;0.00000000;0.00000000;0.00000000;0.00000000;0.00000000;0.00000000;
44062552;76.7;23.7;23.7;21;20.7;20.6;0;0;0;0;0;-0.001;0.0511;0;3.938;0;28;160;1.79999;0;56;0.037;0.035;44062532;0.0511;0;3.938;0;0.537;202.964;0;0;0;0.185;1.062;1;-1;0;0;0;0;0;0;0;0;0;-1;0.00000000;0.00000000;0.00000000;0.00000000;0.00000000;0.00000000;0.00000000;
44062594;76.7;23.7;23.7;21;20.7;20.5;0;0;0;0;0;0.001;0.0511;0;3.938;0;28;160;1.79999;0;56;0.034;0.04;44062554;0.0511;0;3.938;0;0.537;202.963;0;0;0;0.185;1.062;1;-1;0;0;0;0;0;0;0;0;0;-1;0.00000000;0.00000000;0.00000000;0.00000000;0.00000000;0.00000000;0.00000000;
44062612;76.7;23.7;23.7;21;20.7;20.5;0;0;0;0;0;-0.001;0.0511;0;3.938;0;28;160;1.79999;0;56;0.036;0.038;44062595;0.0511;0;3.938;0;0.537;202.963;0;0;0;0.185;1.062;1;-1;0;0;0;0;0;0;0;0;0;-1;0.00000000;0.00000000;0.00000000;0.00000000;0.00000000;0.00000000;0.00000000;
44062674;76.7;23.7;23.7;21;20.7;20.5;0;0;0;0;0;0.001;0.0511;0;3.938;0;28;160;1.79999;0;56;0.03;0.046;44062612;0.0511;0;3.938;0;0.537;202.962;0;0;0;0.185;1.062;1;-1;0;0;0;0;0;0;0;0;0;-1;0.00000000;0.00000000;0.00000000;0.00000000;0.00000000;0.00000000;0.00000000;
44062684;76.7;23.7;23.7;20.9;20.7;20.5;0;0;0;0;0;0.001;0.0511;0;3.938;0;28;160;1.79999;0;56;0.032;0.044;44062674;0.0511;0;3.938;0;0.537;202.962;0;0;0;0.185;1.062;1;-1;0;0;0;0;0;0;0;0;0;-1;0.00000000;0.00000000;0.00000000;0.00000000;0.00000000;0.00000000;0.00000000;
44062713;76.7;23.7;23.7;21;20.7;20.5;0;0;0;0;0;0.001;0.0511;0;3.938;0;28;160;1.79999;0;56;0.032;0.044;44062684;0.0511;0;3.938;0;0.537;202.962;0;0;0;0.185;1.062;1;-1;0;0;0;0;0;0;0;0;0;-1;0.00000000;0.00000000;0.00000000;0.00000000;0.00000000;0.00000000;0.00000000;
44062746;76.7;23.7;23.7;20.9;20.7;20.5;0;0;0;0;0;0.001;0.0511;0;3.938;0;28;160;1.79999;0;56;0.03;0.047;44062713;0.0511;0;3.938;0;0.537;202.962;0;0;0;0.185;1.062;1;-1;0;0;0;0;0;0;0;0;0;-1;0.00000000;0.00000000;0.00000000;0.00000000;0.00000000;0.00000000;0.00000000;
44062778;76.7;23.7;23.8;20.9;20.7;20.6;0;0;0;0;0;0.002;0.0511;0;3.938;0;28;160;1.79999;0;56;0.03;0.047;44062746;0.0511;0;3.938;0;0.537;202.961;0;0;0;0.185;1.062;1;-1;0;0;0;0;0;0;0;0;0;-1;0.00000000;0.00000000;0.00000000;0.00000000;0.00000000;0.00000000;0.00000000;
44062809;76.7;23.7;23.7;20.9;20.6;20.6;0;0;0;0;0;0.001;0.0511;0;3.938;0;28;160;1.79999;0;56;0.032;0.043;44062780;0.0511;0;3.938;0;0.537;202.962;0;0;0;0.185;1.062;1;-1;0;0;0;0;0;0;0;0;0;-1;0.00000000;0.00000000;0.00000000;0.00000000;0.00000000;0.00000000;0.00000000;
44062867;76.6;23.7;23.7;21;20.8;20.5;0;0;0;0;0;-0.001;0.0511;0;3.938;0;28;160;1.79999;0;56;0.031;0.044;44062809;0.0511;0;3.938;0;0.537;202.962;0;0;0;0.185;1.062;1;-1;0;0;0;0;0;0;0;0;0;-1;0.00000000;0.00000000;0.00000000;0.00000000;0.00000000;0.00000000;0.00000000;
44062876;76.7;23.7;23.7;20.9;20.7;20.5;0;0;0;0;0;0.001;0.0511;0;3.938;0;28;160;1.79999;0;56;0.032;0.044;44062867;0.0511;0;3.938;0;0.537;202.96;0;0;0;0.185;1.062;1;-1;0;0;0;0;0;0;0;0;0;-1;0.00000000;0.00000000;0.00000000;0.00000000;0.00000000;0.00000000;0.00000000;
44062911;76.7;23.7;23.7;20.9;20.7;20.5;0;0;0;0;0;0.001;0.0511;0;3.938;0;28;160;1.79999;0;56;0.033;0.04;44062876;0.0511;0;3.938;0;0.537;202.96;0;0;0;0.185;1.062;1;-1;0;0;0;0;0;0;0;0;0;-1;0.00000000;0.00000000;0.00000000;0.00000000;0.00000000;0.00000000;0.00000000;
44063006;76.7;23.7;23.7;20.9;20.6;20.5;0;0;0;0;0;-0.001;0.0511;0;3.938;0;28;160;1.79999;0;56;0.029;0.049;44062912;0.0511;0;3.938;0;0.537;202.959;0;0;0;0.185;1.062;1;-1;0;0;0;0;0;0;0;0;0;-1;0.00000000;0.00000000;0.00000000;0.00000000;0.00000000;0.00000000;0.00000000;
44063074;76.7;23.7;23.7;21;20.8;20.6;0;0;0;0;0;0.001;0.0511;0;3.938;0;28;160;1.79999;0;56;0.033;0.042;44063007;0.0511;0;3.938;0;0.537;202.959;0;0;0;0.185;1.062;1;-1;0;0;0;0;0;0;0;0;0;-1;0.00000000;0.00000000;0.00000000;0.00000000;0.00000000;0.00000000;0.00000000;
44063086;76.7;23.7;23.7;21;20.7;20.6;0;0;0;0;0;0.001;0.0511;0;3.938;0;28;160;1.79999;0;56;0.032;0.044;44063074;0.0511;0;3.938;0;0.537;202.958;0;0;0;0.185;1.062;1;-1;0;0;0;0;0;0;0;0;0;-1;0.00000000;0.00000000;0.00000000;0.00000000;0.00000000;0.00000000;0.00000000;
44063121;76.7;23.7;23.7;20.9;20.7;20.5;0;0;0;0;0;0.001;0.0511;0;3.938;0;28;160;1.79999;0;56;0.033;0.041;44063086;0.0511;0;3.938;0;0.537;202.958;0;0;0;0.185;1.062;1;-1;0;0;0;0;0;0;0;0;0;-1;0.00000000;0.00000000;0.00000000;0.00000000;0.00000000;0.00000000;0.00000000;
44063151;76.7;23.7;23.7;21;20.7;20.5;0;0;0;0;0;0.002;0.0511;0;3.938;0;28;160;1.79999;0;56;0.031;0.046;44063121;0.0511;0;3.938;0;0.537;202.957;0;0;0;0.185;1.062;1;-1;0;0;0;0;0;0;0;0;0;-1;0.00000000;0.00000000;0.00000000;0.00000000;0.00000000;0.00000000;0.00000000;
44063183;76.7;23.7;23.7;21;20.7;20.6;0;0;0;0;0;0.001;0.0511;0;3.938;0;28;160;1.79999;0;56;0.03;0.048;44063151;0.0511;0;3.938;0;0.537;202.957;0;0;0;0.185;1.062;1;-1;0;0;0;0;0;0;0;0;0;-1;0.00000000;0.00000000;0.00000000;0.00000000;0.00000000;0.00000000;0.00000000;
44063221;76.7;23.7;23.7;21;20.7;20.6;0;0;0;0;0;0.001;0.0511;0;3.938;0;28;160;1.79999;0;56;0.034;0.039;44063184;0.0511;0;3.938;0;0.537;202.958;0;0;0;0.185;1.062;1;-1;0;0;0;0;0;0;0;0;0;-1;0.00000000;0.00000000;0.00000000;0.00000000;0.00000000;0.00000000;0.00000000;
44063290;76.7;23.7;23.7;21;20.6;20.6;0;0;0;0;0;0.001;0.0511;0;3.938;0;28;160;1.79999;0;56;0.031;0.045;44063221;0.0511;0;3.938;0;0.537;202.958;0;0;0;0.185;1.062;1;-1;0;0;0;0;0;0;0;0;0;-1;0.00000000;0.00000000;0.00000000;0.00000000;0.00000000;0.00000000;0.00000000;
44063305;76.6;23.7;23.7;20.9;20.6;20.5;0;0;0;0;0;0.001;0.0511;0;3.938;0;28;160;1.79999;0;56;0.033;0.04;44063291;0.0511;0;3.938;0;0.537;202.958;0;0;0;0.185;1.062;1;-1;0;0;0;0;0;0;0;0;0;-1;0.00000000;0.00000000;0.00000000;0.00000000;0.00000000;0.00000000;0.00000000;
44063340;76.7;23.7;23.7;20.9;20.7;20.5;0;0;0;0;0;0.001;0.0511;0;3.938;0;28;160;1.79999;0;56;0.031;0.045;44063306;0.0511;0;3.938;0;0.537;202.957;0;0;0;0.185;1.062;1;-1;0;0;0;0;0;0;0;0;0;-1;0.00000000;0.00000000;0.00000000;0.00000000;0.00000000;0.00000000;0.00000000;
44063370;76.7;23.7;23.6;21;20.7;20.5;0;0;0;0;0;0.001;0.0511;0;3.938;0;28;160;1.79999;0;56;0.034;0.041;44063340;0.0511;0;3.938;0;0.537;202.957;0;0;0;0.185;1.062;1;-1;0;0;0;0;0;0;0;0;0;-1;0.00000000;0.00000000;0.00000000;0.00000000;0.00000000;0.00000000;0.00000000;
44063401;76.7;23.7;23.7;21;20.7;20.5;0;0;0;0;0;0.001;0.0511;0;3.938;0;28;160;1.79999;0;56;0.035;0.039;44063370;0.0511;0;3.938;0;0.537;202.957;0;0;0;0.185;1.062;1;-1;0;0;0;0;0;0;0;0;0;-1;0.00000000;0.00000000;0.00000000;0.00000000;0.00000000;0.00000000;0.00000000;
44063432;76.7;23.7;23.7;21;20.7;20.6;0;0;0;0;0;0.001;0.0511;0;3.938;0;28;160;1.79999;0;56;0.035;0.039;44063402;0.0511;0;3.938;0;0.537;202.957;0;0;0;0.185;1.062;1;-1;0;0;0;0;0;0;0;0;0;-1;0.00000000;0.00000000;0.00000000;0.00000000;0.00000000;0.00000000;0.00000000;
44063466;76.7;23.7;23.7;20.9;20.6;20.6;0;0;0;0;0;0.001;0.0511;0;3.938;0;28;160;1.79999;0;56;0.034;0.041;44063433;0.0511;0;3.938;0;0.537;202.958;0;0;0;0.185;1.062;1;-1;0;0;0;0;0;0;0;0;0;-1;0.00000000;0.00000000;0.00000000;0.00000000;0.00000000;0.00000000;0.00000000;
44063499;76.7;23.7;23.7;21;20.8;20.6;0;0;0;0;0;0.001;0.0511;0;3.938;0;28;160;1.79999;0;56;0.028;0.051;44063466;0.0511;0;3.938;0;0.537;202.956;0;0;0;0.185;1.062;1;-1;0;0;0;0;0;0;0;0;0;-1;0.00000000;0.00000000;0.00000000;0.00000000;0.00000000;0.00000000;0.00000000;
44063531;76.7;23.7;23.6;21;20.7;20.6;0;0;0;0;0;0.001;0.0511;0;3.938;0;28;160;1.79999;0;56;0.031;0.046;44063500;0.0511;0;3.938;0;0.537;202.956;0;0;0;0.185;1.062;1;-1;0;0;0;0;0;0;0;0;0;-1;0.00000000;0.00000000;0.00000000;0.00000000;0.00000000;0.00000000;0.00000000;
44063565;76.7;23.7;23.7;20.9;20.7;20.6;0;0;0;0;0;0.001;0.0511;0;3.938;0;28;160;1.79999;0;56;0.031;0.046;44063531;0.0511;0;3.938;0;0.537;202.956;0;0;0;0.185;1.062;1;-1;0;0;0;0;0;0;0;0;0;-1;0.00000000;0.00000000;0.00000000;0.00000000;0.00000000;0.00000000;0.00000000;
44063648;76.7;23.7;23.7;21;20.7;20.6;0;0;0;0;0;0.001;0.0511;0;3.938;0;28;160;1.79999;0;56;0.035;0.039;44063566;0.0511;0;3.938;0;0.537;202.954;0;0;0;0.185;1.062;1;-1;0;0;0;0;0;0;0;0;0;-1;0.00000000;0.00000000;0.00000000;0.00000000;0.00000000;0.00000000;0.00000000;
44063687;76.7;23.7;23.6;20.9;20.7;20.5;0;0;0;0;0;-0.001;0.0511;0;3.938;0;28;160;1.79999;0;56;0.037;0.036;44063649;0.0511;0;3.938;0;0.537;202.952;0;0;0;0.185;1.062;1;-1;0;0;0;0;0;0;0;0;0;-1;0.00000000;0.00000000;0.00000000;0.00000000;0.00000000;0.00000000;0.00000000;
44063728;76.7;23.7;23.6;21;20.7;20.4;0;0;0;0;0;0.001;0.0511;0;3.938;0;28;160;1.79999;0;56;0.037;0.036;44063688;0.0511;0;3.938;0;0.537;202.951;0;0;0;0.185;1.062;1;-1;0;0;0;0;0;0;0;0;0;-1;0.00000000;0.00000000;0.00000000;0.00000000;0.00000000;0.00000000;0.00000000;
44063742;76.7;23.7;23.7;20.9;20.7;20.4;0;0;0;0;0;0.001;0.0511;0;3.938;0;28;160;1.79999;0;56;0.039;0.034;44063729;0.0511;0;3.938;0;0.537;202.949;0;0;0;0.185;1.062;1;-1;0;0;0;0;0;0;0;0;0;-1;0.00000000;0.00000000;0.00000000;0.00000000;0.00000000;0.00000000;0.00000000;
44063781;76.7;23.7;23.8;20.9;20.6;20.4;0;0;0;0;0;0.001;0.0511;0;3.938;0;28;160;1.79999;0;56;0.034;0.041;44063743;0.0511;0;3.938;0;0.537;202.949;0;0;0;0.185;1.062;1;-1;0;0;0;0;0;0;0;0;0;-1;0.00000000;0.00000000;0.00000000;0.00000000;0.00000000;0.00000000;0.00000000;
44063859;76.7;23.7;23.7;21;20.7;20.3;0;0;0;0;0;0.001;0.0511;0;3.938;0;28;160;1.79999;0;56;0.032;0.044;44063783;0.0511;0;3.938;0;0.537;202.95;0;0;0;0.185;1.062;1;-1;0;0;0;0;0;0;0;0;0;-1;0.00000000;0.00000000;0.00000000;0.00000000;0.00000000;0.00000000;0.00000000;
44063898;76.7;23.7;23.7;21;20.7;20.3;0;0;0;0;0;0.001;0.0511;0;3.938;0;28;160;1.79999;0;56;0.032;0.046;44063867;0.0511;0;3.938;0;0.537;202.95;0;0;0;0.185;1.062;1;-1;0;0;0;0;0;0;0;0;0;-1;0.00000000;0.00000000;0.00000000;0.00000000;0.00000000;0.00000000;0.00000000;
44063930;76.7;23.7;23.7;21;20.7;20.4;0;0;0;0;0;0.002;0.0511;0;3.938;0;28;160;1.79999;0;56;0.031;0.046;44063899;0.0511;0;3.938;0;0.537;202.949;0;0;0;0.185;1.062;1;-1;0;0;0;0;0;0;0;0;0;-1;0.00000000;0.00000000;0.00000000;0.00000000;0.00000000;0.00000000;0.00000000;
44063961;76.7;23.7;23.7;21;20.7;20.5;0;0;0;0;0;0.001;0.0511;0;3.938;0;28;160;1.79999;0;56;0.031;0.046;44063931;0.0511;0;3.938;0;0.537;202.949;0;0;0;0.185;1.062;1;-1;0;0;0;0;0;0;0;0;0;-1;0.00000000;0.00000000;0.00000000;0.00000000;0.00000000;0.00000000;0.00000000;
44063997;76.7;23.7;23.7;21;20.7;20.6;0;0;0;0;0;0.001;0.0511;0;3.938;0;28;160;1.79999;0;56;0.034;0.04;44063962;0.0511;0;3.938;0;0.537;202.949;0;0;0;0.185;1.062;1;-1;0;0;0;0;0;0;0;0;0;-1;0.00000000;0.00000000;0.00000000;0.00000000;0.00000000;0.00000000;0.00000000;
44064041;76.7;23.7;23.7;20.9;20.7;20.6;0;0;0;0;0;0.001;0.0511;0;3.938;0;28;160;1.79999;0;56;0.031;0.047;44063999;0.0511;0;3.938;0;0.537;202.948;0;0;0;0.185;1.062;1;-1;0;0;0;0;0;0;0;0;0;-1;0.00000000;0.00000000;0.00000000;0.00000000;0.00000000;0.00000000;0.00000000;
44064064;76.6;23.7;23.7;21;20.8;20.6;0;0;0;0;0;0.001;0.0511;0;3.938;0;28;160;1.79999;0;56;0.035;0.04;44064041;0.0511;0;3.938;0;0.537;202.945;0;0;0;0.185;1.062;1;-1;0;0;0;0;0;0;0;0;0;-1;0.00000000;0.00000000;0.00000000;0.00000000;0.00000000;0.00000000;0.00000000;
44064098;76.7;23.7;23.7;21;20.7;20.6;0;0;0;0;0;0.001;0.0511;0;3.938;0;28;160;1.79999;0;56;0.033;0.042;44064064;0.0511;0;3.938;0;0.537;202.945;0;0;0;0.185;1.062;1;-1;0;0;0;0;0;0;0;0;0;-1;0.00000000;0.00000000;0.00000000;0.00000000;0.00000000;0.00000000;0.00000000;
44064128;76.7;23.7;23.7;20.9;20.7;20.7;0;0;0;0;0;0.001;0.0511;0;3.938;0;28;160;1.79999;0;56;0.034;0.041;44064099;0.0511;0;3.938;0;0.537;202.944;0;0;0;0.185;1.062;1;-1;0;0;0;0;0;0;0;0;0;-1;0.00000000;0.00000000;0.00000000;0.00000000;0.00000000;0.00000000;0.00000000;
44064156;76.7;23.7;23.8;20.9;20.6;20.6;0;0;0;0;0;0.001;0.0511;0;3.938;0;28;160;1.79999;0;56;0.035;0.038;44064128;0.0511;0;3.938;0;0.537;202.944;0;0;0;0.185;1.062;1;-1;0;0;0;0;0;0;0;0;0;-1;0.00000000;0.00000000;0.00000000;0.00000000;0.00000000;0.00000000;0.00000000;
44064185;76.7;23.7;23.7;21;20.7;20.6;0;0;0;0;0;0.001;0.0511;0;3.938;0;28;160;1.79999;0;56;0.034;0.041;44064157;0.0511;0;3.938;0;0.537;202.944;0;0;0;0.185;1.062;1;-1;0;0;0;0;0;0;0;0;0;-1;0.00000000;0.00000000;0.00000000;0.00000000;0.00000000;0.00000000;0.00000000;
44064238;76.7;23.7;23.7;20.9;20.7;20.6;0;0;0;0;0;0.001;0.0511;0;3.938;0;28;160;1.79999;0;56;0.031;0.045;44064185;0.0511;0;3.938;0;0.537;202.944;0;0;0;0.185;1.062;1;-1;0;0;0;0;0;0;0;0;0;-1;0.00000000;0.00000000;0.00000000;0.00000000;0.00000000;0.00000000;0.00000000;
44064279;76.7;23.7;23.7;20.9;20.6;20.6;0;0;0;0;0;0.001;0.0511;0;3.938;0;28;160;1.79999;0;56;0.035;0.037;44064238;0.0511;0;3.938;0;0.537;202.943;0;0;0;0.185;1.062;1;-1;0;0;0;0;0;0;0;0;0;-1;0.00000000;0.00000000;0.00000000;0.00000000;0.00000000;0.00000000;0.00000000;
44064302;76.7;23.7;23.8;20.9;20.7;20.6;0;0;0;0;0;0.001;0.0511;0;3.938;0;28;160;1.79999;0;56;0.036;0.037;44064279;0.0511;0;3.938;0;0.537;202.943;0;0;0;0.185;1.062;1;-1;0;0;0;0;0;0;0;0;0;-1;0.00000000;0.00000000;0.00000000;0.00000000;0.00000000;0.00000000;0.00000000;
44064340;76.7;23.7;23.7;21;20.7;20.6;0;0;0;0;0;0.001;0.0511;0;3.938;0;28;160;1.79999;0;56;0.033;0.043;44064302;0.0511;0;3.938;0;0.537;202.943;0;0;0;0.185;1.062;1;-1;0;0;0;0;0;0;0;0;0;-1;0.00000000;0.00000000;0.00000000;0.00000000;0.00000000;0.00000000;0.00000000;
44064361;76.7;23.7;23.7;21;20.7;20.5;0;0;0;0;0;0.001;0.0511;0;3.938;0;28;160;1.79999;0;56;0.033;0.042;44064340;0.0511;0;3.938;0;0.537;202.943;0;0;0;0.185;1.062;1;-1;0;0;0;0;0;0;0;0;0;-1;0.00000000;0.00000000;0.00000000;0.00000000;0.00000000;0.00000000;0.00000000;
44064400;76.7;23.7;23.8;21;20.7;20.5;0;0;0;0;0;0.001;0.0511;0;3.938;0;28;160;1.79999;0;56;0.028;0.051;44064362;0.0511;0;3.938;0;0.537;202.944;0;0;0;0.185;1.062;1;-1;0;0;0;0;0;0;0;0;0;-1;0.00000000;0.00000000;0.00000000;0.00000000;0.00000000;0.00000000;0.00000000;
44064442;76.7;23.7;23.8;21;20.7;20.5;0;0;0;0;0;0.001;0.0511;0;3.938;0;28;160;1.79999;0;56;0.029;0.048;44064400;0.0511;0;3.938;0;0.537;202.944;0;0;0;0.185;1.062;1;-1;0;0;0;0;0;0;0;0;0;-1;0.00000000;0.00000000;0.00000000;0.00000000;0.00000000;0.00000000;0.00000000;
44064474;76.7;23.7;23.7;21;20.8;20.5;0;0;0;0;0;0.001;0.0511;0;3.938;0;28;160;1.79999;0;56;0.031;0.045;44064443;0.0511;0;3.938;0;0.537;202.946;0;0;0;0.185;1.062;1;-1;0;0;0;0;0;0;0;0;0;-1;0.00000000;0.00000000;0.00000000;0.00000000;0.00000000;0.00000000;0.00000000;
44064492;76.7;23.7;23.7;20.9;20.7;20.5;0;0;0;0;0;0.001;0.0511;0;3.938;0;28;160;1.79999;0;56;0.031;0.047;44064475;0.0511;0;3.938;0;0.537;202.946;0;0;0;0.185;1.062;1;-1;0;0;0;0;0;0;0;0;0;-1;0.00000000;0.00000000;0.00000000;0.00000000;0.00000000;0.00000000;0.00000000;
44064525;76.6;23.7;23.8;21;20.7;20.6;0;0;0;0;0;0.001;0.0511;0;3.938;0;28;160;1.79999;0;56;0.032;0.045;44064493;0.0511;0;3.938;0;0.537;202.946;0;0;0;0.185;1.062;1;-1;0;0;0;0;0;0;0;0;0;-1;0.00000000;0.00000000;0.00000000;0.00000000;0.00000000;0.00000000;0.00000000;
44064557;76.7;23.7;23.7;20.9;20.6;20.6;0;0;0;0;0;0.001;0.0511;0;3.938;0;28;160;1.79999;0;56;0.033;0.042;44064526;0.0511;0;3.938;0;0.537;202.944;0;0;0;0.185;1.062;1;-1;0;0;0;0;0;0;0;0;0;-1;0.00000000;0.00000000;0.00000000;0.00000000;0.00000000;0.00000000;0.00000000;
44064590;76.7;23.7;23.7;21;20.8;20.6;0;0;0;0;0;0.001;0.0511;0;3.938;0;28;160;1.79999;0;56;0.034;0.042;44064558;0.0511;0;3.938;0;0.537;202.944;0;0;0;0.185;1.062;1;-1;0;0;0;0;0;0;0;0;0;-1;0.00000000;0.00000000;0.00000000;0.00000000;0.00000000;0.00000000;0.00000000;
44064619;76.7;23.7;23.6;21;20.7;20.6;0;0;0;0;0;0.001;0.0511;0;3.938;0;28;160;1.79999;0;56;0.036;0.038;44064591;0.0511;0;3.938;0;0.537;202.945;0;0;0;0.185;1.062;1;-1;0;0;0;0;0;0;0;0;0;-1;0.00000000;0.00000000;0.00000000;0.00000000;0.00000000;0.00000000;0.00000000;
44064650;76.6;23.7;23.7;21;20.6;20.6;0;0;0;0;0;0.001;0.0511;0;3.938;0;28;160;1.79999;0;56;0.027;0.051;44064619;0.0511;0;3.938;0;0.537;202.945;0;0;0;0.185;1.062;1;-1;0;0;0;0;0;0;0;0;0;-1;0.00000000;0.00000000;0.00000000;0.00000000;0.00000000;0.00000000;0.00000000;
44064680;76.7;23.7;23.7;20.8;20.6;20.6;0;0;0;0;0;0.001;0.0511;0;3.938;0;28;160;1.79999;0;56;0.03;0.046;44064650;0.0511;0;3.938;0;0.537;202.944;0;0;0;0.185;1.062;1;-1;0;0;0;0;0;0;0;0;0;-1;0.00000000;0.00000000;0.00000000;0.00000000;0.00000000;0.00000000;0.00000000;
44064717;76.6;23.7;23.7;21;20.7;20.5;0;0;0;0;0;0.001;0.0511;0;3.938;0;28;160;1.79999;0;56;0.031;0.045;44064680;0.0511;0;3.938;0;0.537;202.941;0;0;0;0.185;1.062;1;-1;0;0;0;0;0;0;0;0;0;-1;0.00000000;0.00000000;0.00000000;0.00000000;0.00000000;0.00000000;0.00000000;
44064749;76.7;23.7;23.7;21;20.8;20.5;0;0;0;0;0;-0.001;0.0511;0;3.938;0;28;160;1.79999;0;56;0.034;0.04;44064717;0.0511;0;3.938;0;0.537;202.939;0;0;0;0.185;1.062;1;-1;0;0;0;0;0;0;0;0;0;-1;0.00000000;0.00000000;0.00000000;0.00000000;0.00000000;0.00000000;0.00000000;
44064806;76.7;23.7;23.7;20.9;20.6;20.4;0;0;0;0;0;0.001;0.0511;0;3.938;0;28;160;1.79999;0;56;0.035;0.038;44064749;0.0511;0;3.938;0;0.537;202.94;0;0;0;0.185;1.062;1;-1;0;0;0;0;0;0;0;0;0;-1;0.00000000;0.00000000;0.00000000;0.00000000;0.00000000;0.00000000;0.00000000;
44064840;76.7;23.7;23.7;21;20.7;20.4;0;0;0;0;0;0.001;0.0511;0;3.938;0;28;160;1.79999;0;56;0.03;0.047;44064806;0.0511;0;3.938;0;0.537;202.94;0;0;0;0.185;1.062;1;-1;0;0;0;0;0;0;0;0;0;-1;0.00000000;0.00000000;0.00000000;0.00000000;0.00000000;0.00000000;0.00000000;
44064871;76.7;23.7;23.7;21;20.7;20.5;0;0;0;0;0;0.001;0.0511;0;3.938;0;28;160;1.79999;0;56;0.034;0.042;44064841;0.0511;0;3.938;0;0.537;202.941;0;0;0;0.185;1.062;1;-1;0;0;0;0;0;0;0;0;0;-1;0.00000000;0.00000000;0.00000000;0.00000000;0.00000000;0.00000000;0.00000000;
44064904;76.6;23.7;23.7;21;20.7;20.5;0;0;0;0;0;0.001;0.0511;0;3.938;0;28;160;1.79999;0;56;0.033;0.044;44064872;0.0511;0;3.938;0;0.537;202.942;0;0;0;0.185;1.062;1;-1;0;0;0;0;0;0;0;0;0;-1;0.00000000;0.00000000;0.00000000;0.00000000;0.00000000;0.00000000;0.00000000;
44064935;76.6;23.7;23.7;21;20.7;20.5;0;0;0;0;0;0.001;0.0511;0;3.938;0;28;160;1.79999;0;56;0.035;0.04;44064904;0.0511;0;3.938;0;0.537;202.94;0;0;0;0.185;1.062;1;-1;0;0;0;0;0;0;0;0;0;-1;0.00000000;0.00000000;0.00000000;0.00000000;0.00000000;0.00000000;0.00000000;
44064964;76.7;23.7;23.7;20.9;20.6;20.5;0;0;0;0;0;0.001;0.0511;0;3.938;0;28;160;1.79999;0;56;0.031;0.046;44064935;0.0511;0;3.938;0;0.537;202.94;0;0;0;0.185;1.062;1;-1;0;0;0;0;0;0;0;0;0;-1;0.00000000;0.00000000;0.00000000;0.00000000;0.00000000;0.00000000;0.00000000;
44065027;76.7;23.7;23.7;20.9;20.7;20.6;0;0;0;0;0;0.001;0.0511;0;3.938;0;28;160;1.79999;0;56;0.031;0.048;44064964;0.0511;0;3.938;0;0.537;202.94;0;0;0;0.185;1.062;1;-1;0;0;0;0;0;0;0;0;0;-1;0.00000000;0.00000000;0.00000000;0.00000000;0.00000000;0.00000000;0.00000000;
44065048;76.7;23.7;23.7;20.8;20.5;20.6;0;0;0;0;0;0.001;0.0511;0;3.938;0;28;160;1.79999;0;56;0.032;0.043;44065027;0.0511;0;3.938;0;0.537;202.94;0;0;0;0.185;1.062;1;-1;0;0;0;0;0;0;0;0;0;-1;0.00000000;0.00000000;0.00000000;0.00000000;0.00000000;0.00000000;0.00000000;
44065093;76.6;23.7;23.7;20.8;20.6;20.6;0;0;0;0;0;0.001;0.0511;0;3.938;0;28;160;1.79999;0;56;0.031;0.045;44065049;0.0511;0;3.938;0;0.537;202.94;0;0;0;0.185;1.062;1;-1;0;0;0;0;0;0;0;0;0;-1;0.00000000;0.00000000;0.00000000;0.00000000;0.00000000;0.00000000;0.00000000;
44065113;76.7;23.7;23.8;20.9;20.6;20.7;0;0;0;0;0;0.001;0.0511;0;3.938;0;28;160;1.79999;0;56;0.032;0.043;44065093;0.0511;0;3.938;0;0.537;202.941;0;0;0;0.185;1.062;1;-1;0;0;0;0;0;0;0;0;0;-1;0.00000000;0.00000000;0.00000000;0.00000000;0.00000000;0.00000000;0.00000000;
44065153;76.7;23.7;23.7;21;20.7;20.7;0;0;0;0;0;0.001;0.0511;0;3.938;0;28;160;1.79999;0;56;0.035;0.04;44065113;0.0511;0;3.938;0;0.537;202.943;0;0;0;0.185;1.062;1;-1;0;0;0;0;0;0;0;0;0;-1;0.00000000;0.00000000;0.00000000;0.00000000;0.00000000;0.00000000;0.00000000;
44065172;76.6;23.7;23.7;21.1;20.8;20.6;0;0;0;0;0;0.001;0.0511;0;3.938;0;28;160;1.79999;0;56;0.034;0.039;44065153;0.0511;0;3.938;0;0.537;202.942;0;0;0;0.185;1.062;1;-1;0;0;0;0;0;0;0;0;0;-1;0.00000000;0.00000000;0.00000000;0.00000000;0.00000000;0.00000000;0.00000000;
44065229;76.7;23.7;23.7;21;20.8;20.6;0;0;0;0;0;0.001;0.0511;0;3.938;0;28;160;1.79999;0;56;0.034;0.041;44065173;0.0511;0;3.938;0;0.537;202.941;0;0;0;0.185;1.062;1;-1;0;0;0;0;0;0;0;0;0;-1;0.00000000;0.00000000;0.00000000;0.00000000;0.00000000;0.00000000;0.00000000;
44065241;76.7;23.7;23.7;20.9;20.7;20.7;0;0;0;0;0;0.001;0.0511;0;3.938;0;28;160;1.79999;0;56;0.029;0.049;44065230;0.0511;0;3.938;0;0.537;202.94;0;0;0;0.185;1.062;1;-1;0;0;0;0;0;0;0;0;0;-1;0.00000000;0.00000000;0.00000000;0.00000000;0.00000000;0.00000000;0.00000000;
44065287;76.7;23.7;23.7;21;20.7;20.7;0;0;0;0;0;0.001;0.0511;0;3.938;0;28;160;1.79999;0;56;0.032;0.044;44065243;0.0511;0;3.938;0;0.537;202.94;0;0;0;0.185;1.062;1;-1;0;0;0;0;0;0;0;0;0;-1;0.00000000;0.00000000;0.00000000;0.00000000;0.00000000;0.00000000;0.00000000;
44065325;76.7;23.7;23.7;21;20.8;20.6;0;0;0;0;0;-0.001;0.0511;0;3.938;0;28;160;1.79999;0;56;0.033;0.042;44065288;0.0511;0;3.938;0;0.537;202.94;0;0;0;0.185;1.062;1;-1;0;0;0;0;0;0;0;0;0;-1;0.00000000;0.00000000;0.00000000;0.00000000;0.00000000;0.00000000;0.00000000;
44065373;76.7;23.7;23.7;21;20.7;20.6;0;0;0;0;0;0.001;0.0511;0;3.938;0;28;160;1.79999;0;56;0.035;0.038;44065325;0.0511;0;3.938;0;0.537;202.941;0;0;0;0.185;1.062;1;-1;0;0;0;0;0;0;0;0;0;-1;0.00000000;0.00000000;0.00000000;0.00000000;0.00000000;0.00000000;0.00000000;
44065456;76.7;23.7;23.8;20.9;20.7;20.7;0;0;0;0;0;0.001;0.0511;0;3.938;0;28;160;1.79999;0;56;0.031;0.046;44065374;0.0511;0;3.938;0;0.537;202.941;0;0;0;0.185;1.062;1;-1;0;0;0;0;0;0;0;0;0;-1;0.00000000;0.00000000;0.00000000;0.00000000;0.00000000;0.00000000;0.00000000;
44065473;76.7;23.7;23.7;20.9;20.7;20.7;0;0;0;0;0;0.001;0.0511;0;3.938;0;28;160;1.79999;0;56;0.034;0.04;44065457;0.0511;0;3.938;0;0.537;202.941;0;0;0;0.185;1.062;1;-1;0;0;0;0;0;0;0;0;0;-1;0.00000000;0.00000000;0.00000000;0.00000000;0.00000000;0.00000000;0.00000000;
44065511;76.7;23.7;23.8;20.9;20.7;20.6;0;0;0;0;0;0.001;0.0511;0;3.938;0;28;160;1.79999;0;56;0.031;0.046;44065473;0.0511;0;3.938;0;0.537;202.941;0;0;0;0.185;1.062;1;-1;0;0;0;0;0;0;0;0;0;-1;0.00000000;0.00000000;0.00000000;0.00000000;0.00000000;0.00000000;0.00000000;
44065563;76.7;23.7;23.7;20.9;20.6;20.6;0;0;0;0;0;0.001;0.0511;0;3.938;0;28;160;1.79999;0;56;0.03;0.049;44065512;0.0511;0;3.938;0;0.537;202.942;0;0;0;0.185;1.062;1;-1;0;0;0;0;0;0;0;0;0;-1;0.00000000;0.00000000;0.00000000;0.00000000;0.00000000;0.00000000;0.00000000;
44065632;76.7;23.7;23.7;21;20.7;20.7;0;0;0;0;0;0.001;0.0511;0;3.938;0;28;160;1.79999;0;56;0.03;0.047;44065564;0.0511;0;3.938;0;0.537;202.943;0;0;0;0.185;1.062;1;-1;0;0;0;0;0;0;0;0;0;-1;0.00000000;0.00000000;0.00000000;0.00000000;0.00000000;0.00000000;0.00000000;
44065687;76.7;23.7;23.7;20.9;20.7;20.7;0;0;0;0;0;0.001;0.0511;0;3.938;0;28;160;1.79999;0;56;0.031;0.045;44065634;0.0511;0;3.938;0;0.537;202.943;0;0;0;0.185;1.062;1;-1;0;0;0;0;0;0;0;0;0;-1;0.00000000;0.00000000;0.00000000;0.00000000;0.00000000;0.00000000;0.00000000;
44065727;76.7;23.7;23.7;21;20.7;20.6;0;0;0;0;0;0.001;0.0511;0;3.938;0;28;160;1.79999;0;56;0.029;0.048;44065688;0.0511;0;3.938;0;0.537;202.943;0;0;0;0.185;1.062;1;-1;0;0;0;0;0;0;0;0;0;-1;0.00000000;0.00000000;0.00000000;0.00000000;0.00000000;0.00000000;0.00000000;
44065785;76.7;23.7;23.6;21.1;20.8;20.6;0;0;0;0;0;0.001;0.0511;0;3.938;0;28;160;1.79999;0;56;0.031;0.047;44065728;0.0511;0;3.938;0;0.537;202.943;0;0;0;0.185;1.062;1;-1;0;0;0;0;0;0;0;0;0;-1;0.00000000;0.00000000;0.00000000;0.00000000;0.00000000;0.00000000;0.00000000;
44065824;76.6;23.7;23.7;21;20.7;20.5;0;0;0;0;0;0.001;0.0511;0;3.938;0;28;160;1.79999;0;56;0.033;0.043;44065786;0.0511;0;3.938;0;0.537;202.942;0;0;0;0.185;1.062;1;-1;0;0;0;0;0;0;0;0;0;-1;0.00000000;0.00000000;0.00000000;0.00000000;0.00000000;0.00000000;0.00000000;
44065874;76.7;23.7;23.7;21;20.7;20.4;0;0;0;0;0;0.001;0.0511;0;3.938;0;28;160;1.79999;0;56;0.035;0.039;44065825;0.0511;0;3.938;0;0.537;202.942;0;0;0;0.185;1.062;1;-1;0;0;0;0;0;0;0;0;0;-1;0.00000000;0.00000000;0.00000000;0.00000000;0.00000000;0.00000000;0.00000000;
44065916;76.7;23.7;23.7;21;20.7;20.5;0;0;0;0;0;0.001;0.0511;0;3.938;0;28;160;1.79999;0;56;0.033;0.043;44065874;0.0511;0;3.938;0;0.537;202.94;0;0;0;0.185;1.062;1;-1;0;0;0;0;0;0;0;0;0;-1;0.00000000;0.00000000;0.00000000;0.00000000;0.00000000;0.00000000;0.00000000;
44065998;76.7;23.7;23.7;21;20.7;20.6;0;0;0;0;0;0.001;0.0511;0;3.938;0;28;160;1.79999;0;56;0.034;0.04;44065917;0.0511;0;3.938;0;0.537;202.94;0;0;0;0.185;1.062;1;-1;0;0;0;0;0;0;0;0;0;-1;0.00000000;0.00000000;0.00000000;0.00000000;0.00000000;0.00000000;0.00000000;
44066031;76.6;23.7;23.8;21;20.7;20.5;0;0;0;0;0;0.001;0.0511;0;3.938;0;28;160;1.79999;0;56;0.033;0.042;44065999;0.0511;0;3.938;0;0.537;202.939;0;0;0;0.185;1.062;1;-1;0;0;0;0;0;0;0;0;0;-1;0.00000000;0.00000000;0.00000000;0.00000000;0.00000000;0.00000000;0.00000000;
44066068;76.7;23.7;23.7;21;20.7;20.5;0;0;0;0;0;0.001;0.0511;0;3.938;0;28;160;1.79999;0;56;0.034;0.041;44066032;0.0511;0;3.938;0;0.537;202.938;0;0;0;0.185;1.062;1;-1;0;0;0;0;0;0;0;0;0;-1;0.00000000;0.00000000;0.00000000;0.00000000;0.00000000;0.00000000;0.00000000;
44066100;76.7;23.7;23.7;20.9;20.7;20.5;0;0;0;0;0;0.001;0.0511;0;3.938;0;28;160;1.79999;0;56;0.032;0.044;44066068;0.0511;0;3.938;0;0.537;202.938;0;0;0;0.185;1.062;1;-1;0;0;0;0;0;0;0;0;0;-1;0.00000000;0.00000000;0.00000000;0.00000000;0.00000000;0.00000000;0.00000000;
44066123;76.6;23.7;23.7;21;20.7;20.6;0;0;0;0;0;0.001;0.0511;0;3.938;0;28;160;1.79999;0;56;0.033;0.044;44066100;0.0511;0;3.938;0;0.537;202.938;0;0;0;0.185;1.062;1;-1;0;0;0;0;0;0;0;0;0;-1;0.00000000;0.00000000;0.00000000;0.00000000;0.00000000;0.00000000;0.00000000;
44066178;76.7;23.7;23.7;20.9;20.7;20.6;0;0;0;0;0;0.002;0.0511;0;3.938;0;28;160;1.79999;0;56;0.032;0.046;44066123;0.0511;0;3.938;0;0.537;202.938;0;0;0;0.185;1.062;1;-1;0;0;0;0;0;0;0;0;0;-1;0.00000000;0.00000000;0.00000000;0.00000000;0.00000000;0.00000000;0.00000000;
44066215;76.7;23.7;23.7;20.9;20.7;20.6;0;0;0;0;0;0.001;0.0511;0;3.938;0;28;160;1.79999;0;56;0.032;0.044;44066178;0.0511;0;3.938;0;0.537;202.938;0;0;0;0.185;1.062;1;-1;0;0;0;0;0;0;0;0;0;-1;0.00000000;0.00000000;0.00000000;0.00000000;0.00000000;0.00000000;0.00000000;
44066245;76.7;23.7;23.7;20.9;20.6;20.6;0;0;0;0;0;0.001;0.0511;0;3.938;0;28;160;1.79999;0;56;0.033;0.043;44066215;0.0511;0;3.938;0;0.537;202.939;0;0;0;0.185;1.062;1;-1;0;0;0;0;0;0;0;0;0;-1;0.00000000;0.00000000;0.00000000;0.00000000;0.00000000;0.00000000;0.00000000;
44066282;76.6;23.7;23.8;21;20.7;20.6;0;0;0;0;0;0.001;0.0511;0;3.938;0;28;160;1.79999;0;56;0.032;0.044;44066246;0.0511;0;3.938;0;0.537;202.952;0;0;0;0.185;1.062;1;-1;0;0;0;0;0;0;0;0;0;-1;0.00000000;0.00000000;0.00000000;0.00000000;0.00000000;0.00000000;0.00000000;
44066312;76.7;23.7;23.7;21;20.7;20.6;0;0;0;0;0;0.001;0.0511;0;3.938;0;28;160;1.79999;0;56;0.034;0.041;44066283;0.0511;0;3.938;0;0.537;202.955;0;0;0;0.185;1.062;1;-1;0;0;0;0;0;0;0;0;0;-1;0.00000000;0.00000000;0.00000000;0.00000000;0.00000000;0.00000000;0.00000000;
44066364;76.7;23.7;23.7;20.9;20.7;20.7;0;0;0;0;0;0.001;0.0511;0;3.938;0;28;160;1.79999;0;56;0.034;0.038;44066312;0.0511;0;3.938;0;0.537;202.954;0;0;0;0.185;1.062;1;-1;0;0;0;0;0;0;0;0;0;-1;0.00000000;0.00000000;0.00000000;0.00000000;0.00000000;0.00000000;0.00000000;
44066374;76.7;23.7;23.7;21;20.7;20.7;0;0;0;0;0;0.001;0.0511;0;3.938;0;28;160;1.79999;0;56;0.034;0.04;44066364;0.0511;0;3.938;0;0.537;202.953;0;0;0;0.185;1.062;1;-1;0;0;0;0;0;0;0;0;0;-1;0.00000000;0.00000000;0.00000000;0.00000000;0.00000000;0.00000000;0.00000000;
44066404;76.7;23.7;23.7;21;20.8;20.6;0;0;0;0;0;0.001;0.0511;0;3.938;0;28;160;1.79999;0;56;0.033;0.042;44066375;0.0511;0;3.938;0;0.537;202.953;0;0;0;0.185;1.062;1;-1;0;0;0;0;0;0;0;0;0;-1;0.00000000;0.00000000;0.00000000;0.00000000;0.00000000;0.00000000;0.00000000;
44066434;76.6;23.7;23.7;20.9;20.7;20.7;0;0;0;0;0;0.001;0.0511;0;3.938;0;28;160;1.79999;0;56;0.035;0.039;44066405;0.0511;0;3.938;0;0.537;202.951;0;0;0;0.185;1.062;1;-1;0;0;0;0;0;0;0;0;0;-1;0.00000000;0.00000000;0.00000000;0.00000000;0.00000000;0.00000000;0.00000000;
44066464;76.7;23.7;23.7;21;20.7;20.7;0;0;0;0;0;0.001;0.0511;0;3.938;0;28;160;1.79999;0;56;0.037;0.035;44066434;0.0511;0;3.938;0;0.537;202.95;0;0;0;0.185;1.062;1;-1;0;0;0;0;0;0;0;0;0;-1;0.00000000;0.00000000;0.00000000;0.00000000;0.00000000;0.00000000;0.00000000;
44066498;76.7;23.7;23.7;20.9;20.7;20.7;0;0;0;0;0;0.001;0.0511;0;3.938;0;28;160;1.79999;0;56;0.035;0.038;44066464;0.0511;0;3.938;0;0.537;202.95;0;0;0;0.185;1.062;1;-1;0;0;0;0;0;0;0;0;0;-1;0.00000000;0.00000000;0.00000000;0.00000000;0.00000000;0.00000000;0.00000000;
44066532;76.7;23.7;23.7;21;20.7;20.6;0;0;0;0;0;0.001;0.0511;0;3.938;0;28;160;1.79999;0;56;0.029;0.051;44066498;0.0511;0;3.938;0;0.537;202.949;0;0;0;0.185;1.062;1;-1;0;0;0;0;0;0;0;0;0;-1;0.00000000;0.00000000;0.00000000;0.00000000;0.00000000;0.00000000;0.00000000;
44066589;76.7;23.7;23.7;20.9;20.7;20.7;0;0;0;0;0;0.001;0.0511;0;3.938;0;28;160;1.79999;0;56;0.032;0.046;44066532;0.0511;0;3.938;0;0.537;202.95;0;0;0;0.185;1.062;1;-1;0;0;0;0;0;0;0;0;0;-1;0.00000000;0.00000000;0.00000000;0.00000000;0.00000000;0.00000000;0.00000000;
44066619;76.7;23.7;23.7;21;20.8;20.6;0;0;0;0;0;0.001;0.0511;0;3.938;0;28;160;1.79999;0;56;0.036;0.036;44066590;0.0511;0;3.938;0;0.537;202.949;0;0;0;0.185;1.062;1;-1;0;0;0;0;0;0;0;0;0;-1;0.00000000;0.00000000;0.00000000;0.00000000;0.00000000;0.00000000;0.00000000;
44066649;76.7;23.7;23.7;20.9;20.7;20.7;0;0;0;0;0;0.001;0.0511;0;3.938;0;28;160;1.79999;0;56;0.031;0.044;44066620;0.0511;0;3.938;0;0.537;202.949;0;0;0;0.185;1.062;1;-1;0;0;0;0;0;0;0;0;0;-1;0.00000000;0.00000000;0.00000000;0.00000000;0.00000000;0.00000000;0.00000000;
44066680;76.7;23.7;23.7;20.9;20.7;20.7;0;0;0;0;0;0.001;0.0511;0;3.938;0;28;160;1.79999;0;56;0.03;0.048;44066649;0.0511;0;3.938;0;0.537;202.948;0;0;0;0.185;1.062;1;-1;0;0;0;0;0;0;0;0;0;-1;0.00000000;0.00000000;0.00000000;0.00000000;0.00000000;0.00000000;0.00000000;
44066713;76.7;23.7;23.7;20.9;20.7;20.7;0;0;0;0;0;0.001;0.0511;0;3.938;0;28;160;1.79999;0;56;0.031;0.045;44066680;0.0511;0;3.938;0;0.537;202.948;0;0;0;0.185;1.062;1;-1;0;0;0;0;0;0;0;0;0;-1;0.00000000;0.00000000;0.00000000;0.00000000;0.00000000;0.00000000;0.00000000;
44066769;76.7;23.7;23.7;21;20.7;20.7;0;0;0;0;0;0.001;0.0511;0;3.938;0;28;160;1.79999;0;56;0.031;0.046;44066713;0.0511;0;3.938;0;0.537;202.949;0;0;0;0.185;1.062;1;-1;0;0;0;0;0;0;0;0;0;-1;0.00000000;0.00000000;0.00000000;0.00000000;0.00000000;0.00000000;0.00000000;
44066779;76.7;23.7;23.7;21;20.8;20.7;0;0;0;0;0;0.001;0.0511;0;3.938;0;28;160;1.79999;0;56;0.03;0.049;44066770;0.0511;0;3.938;0;0.537;202.949;0;0;0;0.185;1.062;1;-1;0;0;0;0;0;0;0;0;0;-1;0.00000000;0.00000000;0.00000000;0.00000000;0.00000000;0.00000000;0.00000000;
44066806;76.7;23.7;23.7;20.9;20.7;20.7;0;0;0;0;0;0.001;0.0511;0;3.938;0;28;160;1.79999;0;56;0.031;0.049;44066780;0.0511;0;3.938;0;0.537;202.949;0;0;0;0.185;1.062;1;-1;0;0;0;0;0;0;0;0;0;-1;0.00000000;0.00000000;0.00000000;0.00000000;0.00000000;0.00000000;0.00000000;
44066844;76.7;23.7;23.7;20.9;20.6;20.7;0;0;0;0;0;0.001;0.0511;0;3.938;0;28;160;1.79999;0;56;0.036;0.037;44066806;0.0511;0;3.938;0;0.537;202.949;0;0;0;0.185;1.062;1;-1;0;0;0;0;0;0;0;0;0;-1;0.00000000;0.00000000;0.00000000;0.00000000;0.00000000;0.00000000;0.00000000;
44066874;76.7;23.7;23.7;21;20.7;20.6;0;0;0;0;0;0.001;0.0511;0;3.938;0;28;160;1.79999;0;56;0.034;0.04;44066844;0.0511;0;3.938;0;0.537;202.949;0;0;0;0.185;1.062;1;-1;0;0;0;0;0;0;0;0;0;-1;0.00000000;0.00000000;0.00000000;0.00000000;0.00000000;0.00000000;0.00000000;
44066904;76.7;23.7;23.7;20.9;20.6;20.6;0;0;0;0;0;0.001;0.0511;0;3.938;0;28;160;1.79999;0;56;0.03;0.047;44066874;0.0511;0;3.938;0;0.537;202.95;0;0;0;0.185;1.062;1;-1;0;0;0;0;0;0;0;0;0;-1;0.00000000;0.00000000;0.00000000;0.00000000;0.00000000;0.00000000;0.00000000;
44066933;76.7;23.7;23.8;20.9;20.6;20.6;0;0;0;0;0;0.001;0.0511;0;3.938;0;28;160;1.79999;0;56;0.034;0.039;44066905;0.0511;0;3.938;0;0.537;202.949;0;0;0;0.185;1.062;1;-1;0;0;0;0;0;0;0;0;0;-1;0.00000000;0.00000000;0.00000000;0.00000000;0.00000000;0.00000000;0.00000000;
44066966;76.7;23.7;23.8;21;20.7;20.6;0;0;0;0;0;-0.001;0.0511;0;3.938;0;28;160;1.79999;0;56;0.036;0.038;44066945;0.0511;0;3.938;0;0.537;202.949;0;0;0;0.185;1.062;1;-1;0;0;0;0;0;0;0;0;0;-1;0.00000000;0.00000000;0.00000000;0.00000000;0.00000000;0.00000000;0.00000000;
44067000;76.7;23.7;23.7;21;20.7;20.6;0;0;0;0;0;0.001;0.0511;0;3.938;0;28;160;1.79999;0;56;0.032;0.044;44066966;0.0511;0;3.938;0;0.537;202.948;0;0;0;0.185;1.062;1;-1;0;0;0;0;0;0;0;0;0;-1;0.00000000;0.00000000;0.00000000;0.00000000;0.00000000;0.00000000;0.00000000;
44067030;76.7;23.7;23.7;20.8;20.6;20.6;0;0;0;0;0;-0.001;0.0511;0;3.938;0;28;160;1.79999;0;56;0.029;0.048;44067000;0.0511;0;3.938;0;0.537;202.947;0;0;0;0.185;1.062;1;-1;0;0;0;0;0;0;0;0;0;-1;0.00000000;0.00000000;0.00000000;0.00000000;0.00000000;0.00000000;0.00000000;
44067064;76.6;23.7;23.7;20.9;20.6;20.6;0;0;0;0;0;0.001;0.0511;0;3.938;0;28;160;1.79999;0;56;0.031;0.045;44067031;0.0511;0;3.938;0;0.537;202.946;0;0;0;0.185;1.062;1;-1;0;0;0;0;0;0;0;0;0;-1;0.00000000;0.00000000;0.00000000;0.00000000;0.00000000;0.00000000;0.00000000;
44067122;76.7;23.7;23.7;21;20.8;20.6;0;0;0;0;0;0.001;0.0511;0;3.938;0;28;160;1.79999;0;56;0.031;0.045;44067064;0.0511;0;3.938;0;0.537;202.945;0;0;0;0.185;1.062;1;-1;0;0;0;0;0;0;0;0;0;-1;0.00000000;0.00000000;0.00000000;0.00000000;0.00000000;0.00000000;0.00000000;
44067149;76.7;23.7;23.7;21;20.7;20.6;0;0;0;0;0;0.001;0.0511;0;3.938;0;28;160;1.79999;0;56;0.036;0.038;44067122;0.0511;0;3.938;0;0.537;202.945;0;0;0;0.185;1.062;1;-1;0;0;0;0;0;0;0;0;0;-1;0.00000000;0.00000000;0.00000000;0.00000000;0.00000000;0.00000000;0.00000000;
44067182;76.7;23.7;23.7;21;20.7;20.6;0;0;0;0;0;0.001;0.0511;0;3.938;0;28;160;1.79999;0;56;0.034;0.04;44067151;0.0511;0;3.938;0;0.537;202.944;0;0;0;0.185;1.062;1;-1;0;0;0;0;0;0;0;0;0;-1;0.00000000;0.00000000;0.00000000;0.00000000;0.00000000;0.00000000;0.00000000;
44067212;76.7;23.7;23.7;21;20.7;20.6;0;0;0;0;0;0.001;0.0511;0;3.938;0;28;160;1.79999;0;56;0.036;0.036;44067183;0.0511;0;3.938;0;0.537;202.944;0;0;0;0.185;1.062;1;-1;0;0;0;0;0;0;0;0;0;-1;0.00000000;0.00000000;0.00000000;0.00000000;0.00000000;0.00000000;0.00000000;
44067248;76.7;23.7;23.7;21;20.7;20.6;0;0;0;0;0;0.002;0.0511;0;3.938;0;28;160;1.79999;0;56;0.033;0.044;44067213;0.0511;0;3.938;0;0.537;202.943;0;0;0;0.185;1.062;1;-1;0;0;0;0;0;0;0;0;0;-1;0.00000000;0.00000000;0.00000000;0.00000000;0.00000000;0.00000000;0.00000000;
44067279;76.7;23.7;23.7;21;20.7;20.6;0;0;0;0;0;0.001;0.0511;0;3.938;0;28;160;1.79999;0;56;0.033;0.043;44067249;0.0511;0;3.938;0;0.537;202.943;0;0;0;0.185;1.062;1;-1;0;0;0;0;0;0;0;0;0;-1;0.00000000;0.00000000;0.00000000;0.00000000;0.00000000;0.00000000;0.00000000;
44067333;76.6;23.7;23.6;20.9;20.7;20.6;0;0;0;0;0;0.001;0.0511;0;3.938;0;28;160;1.79999;0;56;0.031;0.045;44067279;0.0511;0;3.938;0;0.537;202.943;0;0;0;0.185;1.062;1;-1;0;0;0;0;0;0;0;0;0;-1;0.00000000;0.00000000;0.00000000;0.00000000;0.00000000;0.00000000;0.00000000;
44067369;76.7;23.7;23.8;21;20.8;20.6;0;0;0;0;0;0.002;0.0511;0;3.938;0;28;160;1.79999;0;56;0.032;0.044;44067334;0.0511;0;3.938;0;0.537;202.942;0;0;0;0.185;1.062;1;-1;0;0;0;0;0;0;0;0;0;-1;0.00000000;0.00000000;0.00000000;0.00000000;0.00000000;0.00000000;0.00000000;
44067399;76.7;23.7;23.7;20.9;20.6;20.7;0;0;0;0;0;0.001;0.0511;0;3.938;0;28;160;1.79999;0;56;0.031;0.047;44067369;0.0511;0;3.938;0;0.537;202.942;0;0;0;0.185;1.062;1;-1;0;0;0;0;0;0;0;0;0;-1;0.00000000;0.00000000;0.00000000;0.00000000;0.00000000;0.00000000;0.00000000;
44067431;76.7;23.7;23.7;21;20.7;20.6;0;0;0;0;0;0.001;0.0511;0;3.938;0;28;160;1.79999;0;56;0.031;0.046;44067399;0.0511;0;3.938;0;0.537;202.942;0;0;0;0.185;1.062;1;-1;0;0;0;0;0;0;0;0;0;-1;0.00000000;0.00000000;0.00000000;0.00000000;0.00000000;0.00000000;0.00000000;
44067461;76.7;23.7;23.7;20.9;20.7;20.7;0;0;0;0;0;0.001;0.0511;0;3.938;0;28;160;1.79999;0;56;0.031;0.045;44067431;0.0511;0;3.938;0;0.537;202.942;0;0;0;0.185;1.062;1;-1;0;0;0;0;0;0;0;0;0;-1;0.00000000;0.00000000;0.00000000;0.00000000;0.00000000;0.00000000;0.00000000;
44067497;76.7;23.7;23.7;20.9;20.7;20.6;0;0;0;0;0;0.001;0.0511;0;3.938;0;28;160;1.79999;0;56;0.034;0.04;44067462;0.0511;0;3.938;0;0.537;202.94;0;0;0;0.185;1.062;1;-1;0;0;0;0;0;0;0;0;0;-1;0.00000000;0.00000000;0.00000000;0.00000000;0.00000000;0.00000000;0.00000000;
44067539;76.7;23.7;23.7;20.9;20.7;20.6;0;0;0;0;0;0.001;0.0511;0;3.938;0;28;160;1.79999;0;56;0.033;0.042;44067497;0.0511;0;3.938;0;0.537;202.94;0;0;0;0.185;1.062;1;-1;0;0;0;0;0;0;0;0;0;-1;0.00000000;0.00000000;0.00000000;0.00000000;0.00000000;0.00000000;0.00000000;
44067573;76.7;23.7;23.7;21;20.8;20.5;0;0;0;0;0;-0.001;0.0511;0;3.938;0;28;160;1.79999;0;56;0.031;0.046;44067539;0.0511;0;3.938;0;0.537;202.94;0;0;0;0.185;1.062;1;-1;0;0;0;0;0;0;0;0;0;-1;0.00000000;0.00000000;0.00000000;0.00000000;0.00000000;0.00000000;0.00000000;
44067584;76.7;23.7;23.7;21;20.7;20.5;0;0;0;0;0;0.001;0.0511;0;3.938;0;28;160;1.79999;0;56;0.037;0.034;44067573;0.0511;0;3.938;0;0.537;202.941;0;0;0;0.185;1.062;1;-1;0;0;0;0;0;0;0;0;0;-1;0.00000000;0.00000000;0.00000000;0.00000000;0.00000000;0.00000000;0.00000000;
44067620;76.7;23.7;23.7;20.9;20.7;20.6;0;0;0;0;0;-0.001;0.0511;0;3.938;0;28;160;1.79999;0;56;0.034;0.04;44067586;0.0511;0;3.938;0;0.537;202.941;0;0;0;0.185;1.062;1;-1;0;0;0;0;0;0;0;0;0;-1;0.00000000;0.00000000;0.00000000;0.00000000;0.00000000;0.00000000;0.00000000;
44067651;76.7;23.7;23.8;20.9;20.7;20.5;0;0;0;0;0;0.001;0.0511;0;3.938;0;28;160;1.79999;0;56;0.034;0.041;44067621;0.0511;0;3.938;0;0.537;202.94;0;0;0;0.185;1.062;1;-1;0;0;0;0;0;0;0;0;0;-1;0.00000000;0.00000000;0.00000000;0.00000000;0.00000000;0.00000000;0.00000000;
44067680;76.6;23.7;23.7;21;20.7;20.5;0;0;0;0;0;0.001;0.0511;0;3.938;0;28;160;1.79999;0;56;0.034;0.039;44067651;0.0511;0;3.938;0;0.537;202.939;0;0;0;0.185;1.062;1;-1;0;0;0;0;0;0;0;0;0;-1;0.00000000;0.00000000;0.00000000;0.00000000;0.00000000;0.00000000;0.00000000;
44067737;76.7;23.7;23.7;20.9;20.6;20.5;0;0;0;0;0;0.001;0.0511;0;3.938;0;28;160;1.79999;0;56;0.034;0.04;44067680;0.0511;0;3.938;0;0.537;202.938;0;0;0;0.185;1.062;1;-1;0;0;0;0;0;0;0;0;0;-1;0.00000000;0.00000000;0.00000000;0.00000000;0.00000000;0.00000000;0.00000000;
44067746;76.7;23.7;23.7;21;20.7;20.5;0;0;0;0;0;0.001;0.0511;0;3.938;0;28;160;1.79999;0;56;0.028;0.05;44067738;0.0511;0;3.938;0;0.537;202.935;0;0;0;0.185;1.062;1;-1;0;0;0;0;0;0;0;0;0;-1;0.00000000;0.00000000;0.00000000;0.00000000;0.00000000;0.00000000;0.00000000;
44067774;76.7;23.7;23.7;21;20.7;20.5;0;0;0;0;0;0.001;0.0511;0;3.938;0;28;160;1.79999;0;56;0.032;0.043;44067746;0.0511;0;3.938;0;0.537;202.935;0;0;0;0.185;1.062;1;-1;0;0;0;0;0;0;0;0;0;-1;0.00000000;0.00000000;0.00000000;0.00000000;0.00000000;0.00000000;0.00000000;
44067811;76.7;23.7;23.7;21;20.7;20.5;0;0;0;0;0;-0.001;0.0511;0;3.938;0;28;160;1.79999;0;56;0.032;0.044;44067775;0.0511;0;3.938;0;0.537;202.935;0;0;0;0.185;1.062;1;-1;0;0;0;0;0;0;0;0;0;-1;0.00000000;0.00000000;0.00000000;0.00000000;0.00000000;0.00000000;0.00000000;
44067840;76.7;23.7;23.7;21;20.7;20.5;0;0;0;0;0;0.001;0.0511;0;3.938;0;28;160;1.79999;0;56;0.032;0.044;44067811;0.0511;0;3.938;0;0.537;202.934;0;0;0;0.185;1.062;1;-1;0;0;0;0;0;0;0;0;0;-1;0.00000000;0.00000000;0.00000000;0.00000000;0.00000000;0.00000000;0.00000000;
44067868;76.7;23.7;23.7;20.9;20.7;20.5;0;0;0;0;0;0.001;0.0511;0;3.938;0;28;160;1.79999;0;56;0.027;0.051;44067841;0.0511;0;3.938;0;0.537;202.933;0;0;0;0.185;1.062;1;-1;0;0;0;0;0;0;0;0;0;-1;0.00000000;0.00000000;0.00000000;0.00000000;0.00000000;0.00000000;0.00000000;
44067904;76.7;23.7;23.7;20.9;20.7;20.5;0;0;0;0;0;0.001;0.0511;0;3.938;0;28;160;1.79999;0;56;0.028;0.051;44067868;0.0511;0;3.938;0;0.537;202.933;0;0;0;0.185;1.062;1;-1;0;0;0;0;0;0;0;0;0;-1;0.00000000;0.00000000;0.00000000;0.00000000;0.00000000;0.00000000;0.00000000;
44067951;76.7;23.7;23.7;21;20.7;20.6;0;0;0;0;0;0.001;0.0511;0;3.938;0;28;160;1.79999;0;56;0.031;0.046;44067905;0.0511;0;3.938;0;0.537;202.933;0;0;0;0.185;1.062;1;-1;0;0;0;0;0;0;0;0;0;-1;0.00000000;0.00000000;0.00000000;0.00000000;0.00000000;0.00000000;0.00000000;
44067961;76.7;23.7;23.8;20.9;20.7;20.5;0;0;0;0;0;0.001;0.0511;0;3.938;0;28;160;1.79999;0;56;0.03;0.046;44067952;0.0511;0;3.938;0;0.537;202.932;0;0;0;0.185;1.062;1;-1;0;0;0;0;0;0;0;0;0;-1;0.00000000;0.00000000;0.00000000;0.00000000;0.00000000;0.00000000;0.00000000;
44067997;76.7;23.7;23.7;21;20.7;20.6;0;0;0;0;0;0.001;0.0511;0;3.938;0;28;160;1.79999;0;56;0.039;0.032;44067962;0.0511;0;3.938;0;0.537;202.932;0;0;0;0.185;1.062;1;-1;0;0;0;0;0;0;0;0;0;-1;0.00000000;0.00000000;0.00000000;0.00000000;0.00000000;0.00000000;0.00000000;
44068034;76.7;23.7;23.7;21;20.7;20.6;0;0;0;0;0;0.001;0.0511;0;3.938;0;28;160;1.79999;0;56;0.037;0.037;44068006;0.0511;0;3.938;0;0.537;202.931;0;0;0;0.185;1.062;1;-1;0;0;0;0;0;0;0;0;0;-1;0.00000000;0.00000000;0.00000000;0.00000000;0.00000000;0.00000000;0.00000000;
44068062;76.7;23.7;23.7;20.9;20.6;20.6;0;0;0;0;0;0.001;0.0511;0;3.938;0;28;160;1.79999;0;56;0.035;0.041;44068035;0.0511;0;3.938;0;0.537;202.931;0;0;0;0.185;1.062;1;-1;0;0;0;0;0;0;0;0;0;-1;0.00000000;0.00000000;0.00000000;0.00000000;0.00000000;0.00000000;0.00000000;
44068093;76.7;23.7;23.7;21;20.7;20.6;0;0;0;0;0;0.001;0.0511;0;3.938;0;28;160;1.79999;0;56;0.029;0.047;44068063;0.0511;0;3.938;0;0.537;202.931;0;0;0;0.185;1.062;1;-1;0;0;0;0;0;0;0;0;0;-1;0.00000000;0.00000000;0.00000000;0.00000000;0.00000000;0.00000000;0.00000000;
44068122;76.7;23.7;23.7;21;20.7;20.6;0;0;0;0;0;-0.001;0.0511;0;3.938;0;28;160;1.79999;0;56;0.036;0.038;44068093;0.0511;0;3.938;0;0.537;202.931;0;0;0;0.185;1.062;1;-1;0;0;0;0;0;0;0;0;0;-1;0.00000000;0.00000000;0.00000000;0.00000000;0.00000000;0.00000000;0.00000000;
44068154;76.7;23.7;23.7;21;20.7;20.6;0;0;0;0;0;-0.001;0.0511;0;3.938;0;28;160;1.79999;0;56;0.031;0.045;44068122;0.0511;0;3.938;0;0.537;202.93;0;0;0;0.185;1.062;1;-1;0;0;0;0;0;0;0;0;0;-1;0.00000000;0.00000000;0.00000000;0.00000000;0.00000000;0.00000000;0.00000000;
44068184;76.7;23.7;23.7;21;20.7;20.6;0;0;0;0;0;0.001;0.0511;0;3.938;0;28;160;1.79999;0;56;0.035;0.038;44068154;0.0511;0;3.938;0;0.537;202.929;0;0;0;0.185;1.062;1;-1;0;0;0;0;0;0;0;0;0;-1;0.00000000;0.00000000;0.00000000;0.00000000;0.00000000;0.00000000;0.00000000;
44068214;76.7;23.7;23.7;20.8;20.6;20.6;0;0;0;0;0;-0.002;0.0511;0;3.938;0;28;160;1.79999;0;56;0.03;0.047;44068184;0.0511;0;3.938;0;0.537;202.928;0;0;0;0.185;1.062;1;-1;0;0;0;0;0;0;0;0;0;-1;0.00000000;0.00000000;0.00000000;0.00000000;0.00000000;0.00000000;0.00000000;
44068249;76.7;23.7;23.8;20.9;20.7;20.6;0;0;0;0;0;0.001;0.0511;0;3.938;0;28;160;1.79999;0;56;0.033;0.042;44068215;0.0511;0;3.938;0;0.537;202.926;0;0;0;0.185;1.062;1;-1;0;0;0;0;0;0;0;0;0;-1;0.00000000;0.00000000;0.00000000;0.00000000;0.00000000;0.00000000;0.00000000;
44068307;76.7;23.7;23.7;21;20.7;20.6;0;0;0;0;0;0.001;0.0511;0;3.938;0;28;160;1.79999;0;56;0.031;0.046;44068249;0.0511;0;3.938;0;0.537;202.927;0;0;0;0.185;1.062;1;-1;0;0;0;0;0;0;0;0;0;-1;0.00000000;0.00000000;0.00000000;0.00000000;0.00000000;0.00000000;0.00000000;
44068341;76.7;23.7;23.7;20.9;20.7;20.6;0;0;0;0;0;0.001;0.0511;0;3.938;0;28;160;1.79999;0;56;0.03;0.046;44068307;0.0511;0;3.938;0;0.537;202.925;0;0;0;0.185;1.062;1;-1;0;0;0;0;0;0;0;0;0;-1;0.00000000;0.00000000;0.00000000;0.00000000;0.00000000;0.00000000;0.00000000;
44068370;76.7;23.7;23.7;20.9;20.7;20.6;0;0;0;0;0;0.001;0.0511;0;3.938;0;28;160;1.79999;0;56;0.035;0.037;44068342;0.0511;0;3.938;0;0.537;202.925;0;0;0;0.185;1.062;1;-1;0;0;0;0;0;0;0;0;0;-1;0.00000000;0.00000000;0.00000000;0.00000000;0.00000000;0.00000000;0.00000000;
44068402;76.7;23.7;23.7;21;20.7;20.6;0;0;0;0;0;0.001;0.0511;0;3.938;0;28;160;1.79999;0;56;0.032;0.041;44068370;0.0511;0;3.938;0;0.537;202.924;0;0;0;0.185;1.062;1;-1;0;0;0;0;0;0;0;0;0;-1;0.00000000;0.00000000;0.00000000;0.00000000;0.00000000;0.00000000;0.00000000;
44068434;76.7;23.7;23.7;20.9;20.7;20.6;0;0;0;0;0;0.001;0.0511;0;3.938;0;28;160;1.79999;0;56;0.035;0.039;44068403;0.0511;0;3.938;0;0.537;202.922;0;0;0;0.185;1.062;1;-1;0;0;0;0;0;0;0;0;0;-1;0.00000000;0.00000000;0.00000000;0.00000000;0.00000000;0.00000000;0.00000000;
44068465;76.7;23.7;23.7;21;20.7;20.6;0;0;0;0;0;0.001;0.0511;0;3.938;0;28;160;1.79999;0;56;0.029;0.049;44068435;0.0511;0;3.938;0;0.537;202.922;0;0;0;0.185;1.062;1;-1;0;0;0;0;0;0;0;0;0;-1;0.00000000;0.00000000;0.00000000;0.00000000;0.00000000;0.00000000;0.00000000;
44068522;76.7;23.7;23.7;20.9;20.7;20.6;0;0;0;0;0;0.001;0.0511;0;3.938;0;28;160;1.79999;0;56;0.03;0.047;44068465;0.0511;0;3.938;0;0.537;202.923;0;0;0;0.185;1.062;1;-1;0;0;0;0;0;0;0;0;0;-1;0.00000000;0.00000000;0.00000000;0.00000000;0.00000000;0.00000000;0.00000000;
44068560;76.7;23.7;23.7;20.9;20.6;20.7;0;0;0;0;0;0.001;0.0511;0;3.938;0;28;160;1.79999;0;56;0.031;0.047;44068522;0.0511;0;3.938;0;0.537;202.922;0;0;0;0.185;1.062;1;-1;0;0;0;0;0;0;0;0;0;-1;0.00000000;0.00000000;0.00000000;0.00000000;0.00000000;0.00000000;0.00000000;
44068590;76.7;23.7;23.7;20.9;20.7;20.7;0;0;0;0;0;0.001;0.0511;0;3.938;0;28;160;1.79999;0;56;0.04;0.029;44068560;0.0511;0;3.938;0;0.537;202.922;0;0;0;0.185;1.062;1;-1;0;0;0;0;0;0;0;0;0;-1;0.00000000;0.00000000;0.00000000;0.00000000;0.00000000;0.00000000;0.00000000;
44068620;76.7;23.7;23.7;21;20.7;20.6;0;0;0;0;0;0.001;0.0511;0;3.938;0;28;160;1.79999;0;56;0.036;0.039;44068590;0.0511;0;3.938;0;0.537;202.922;0;0;0;0.185;1.062;1;-1;0;0;0;0;0;0;0;0;0;-1;0.00000000;0.00000000;0.00000000;0.00000000;0.00000000;0.00000000;0.00000000;
44068650;76.7;23.7;23.7;21;20.7;20.6;0;0;0;0;0;-0.001;0.0511;0;3.938;0;28;160;1.79999;0;56;0.032;0.043;44068620;0.0511;0;3.938;0;0.537;202.922;0;0;0;0.185;1.062;1;-1;0;0;0;0;0;0;0;0;0;-1;0.00000000;0.00000000;0.00000000;0.00000000;0.00000000;0.00000000;0.00000000;
44068706;76.6;23.7;23.6;21;20.7;20.7;0;0;0;0;0;0.001;0.0511;0;3.938;0;28;160;1.79999;0;56;0.034;0.039;44068650;0.0511;0;3.938;0;0.537;202.922;0;0;0;0.185;1.062;1;-1;0;0;0;0;0;0;0;0;0;-1;0.00000000;0.00000000;0.00000000;0.00000000;0.00000000;0.00000000;0.00000000;
44068715;76.7;23.7;23.7;20.9;20.7;20.7;0;0;0;0;0;0.001;0.0511;0;3.938;0;28;160;1.79999;0;56;0.029;0.046;44068706;0.0511;0;3.938;0;0.537;202.921;0;0;0;0.185;1.062;1;-1;0;0;0;0;0;0;0;0;0;-1;0.00000000;0.00000000;0.00000000;0.00000000;0.00000000;0.00000000;0.00000000;
44068745;76.7;23.7;23.7;20.9;20.6;20.7;0;0;0;0;0;0.001;0.0511;0;3.938;0;28;160;1.79999;0;56;0.034;0.043;44068716;0.0511;0;3.938;0;0.537;202.921;0;0;0;0.185;1.062;1;-1;0;0;0;0;0;0;0;0;0;-1;0.00000000;0.00000000;0.00000000;0.00000000;0.00000000;0.00000000;0.00000000;
44068777;76.7;23.7;23.8;21;20.8;20.7;0;0;0;0;0;0.001;0.0511;0;3.938;0;28;160;1.79999;0;56;0.035;0.039;44068745;0.0511;0;3.938;0;0.537;202.921;0;0;0;0.185;1.062;1;-1;0;0;0;0;0;0;0;0;0;-1;0.00000000;0.00000000;0.00000000;0.00000000;0.00000000;0.00000000;0.00000000;
44068808;76.7;23.7;23.7;21;20.7;20.6;0;0;0;0;0;0.001;0.0511;0;3.938;0;28;160;1.79999;0;56;0.033;0.041;44068778;0.0511;0;3.938;0;0.537;202.921;0;0;0;0.185;1.062;1;-1;0;0;0;0;0;0;0;0;0;-1;0.00000000;0.00000000;0.00000000;0.00000000;0.00000000;0.00000000;0.00000000;
44068839;76.7;23.7;23.7;20.9;20.7;20.6;0;0;0;0;0;0.001;0.0511;0;3.938;0;28;160;1.79999;0;56;0.033;0.043;44068809;0.0511;0;3.938;0;0.537;202.92;0;0;0;0.185;1.062;1;-1;0;0;0;0;0;0;0;0;0;-1;0.00000000;0.00000000;0.00000000;0.00000000;0.00000000;0.00000000;0.00000000;
44068871;76.7;23.7;23.7;21;20.7;20.7;0;0;0;0;0;0.001;0.0511;0;3.938;0;28;160;1.79999;0;56;0.035;0.039;44068839;0.0511;0;3.938;0;0.537;202.92;0;0;0;0.185;1.062;1;-1;0;0;0;0;0;0;0;0;0;-1;0.00000000;0.00000000;0.00000000;0.00000000;0.00000000;0.00000000;0.00000000;
44068926;76.6;23.7;23.7;21;20.8;20.6;0;0;0;0;0;0.002;0.0511;0;3.938;0;28;160;1.79999;0;56;0.032;0.044;44068871;0.0511;0;3.938;0;0.537;202.921;0;0;0;0.185;1.062;1;-1;0;0;0;0;0;0;0;0;0;-1;0.00000000;0.00000000;0.00000000;0.00000000;0.00000000;0.00000000;0.00000000;
44068937;76.7;23.7;23.7;21;20.7;20.6;0;0;0;0;0;0.001;0.0511;0;3.938;0;28;160;1.79999;0;56;0.032;0.044;44068927;0.0511;0;3.938;0;0.537;202.92;0;0;0;0.185;1.062;1;-1;0;0;0;0;0;0;0;0;0;-1;0.00000000;0.00000000;0.00000000;0.00000000;0.00000000;0.00000000;0.00000000;
44068969;76.6;23.7;23.7;20.8;20.5;20.6;0;0;0;0;0;0.001;0.0511;0;3.938;0;28;160;1.79999;0;56;0.031;0.046;44068938;0.0511;0;3.938;0;0.537;202.92;0;0;0;0.185;1.062;1;-1;0;0;0;0;0;0;0;0;0;-1;0.00000000;0.00000000;0.00000000;0.00000000;0.00000000;0.00000000;0.00000000;
44068999;76.7;23.7;23.7;21;20.7;20.6;0;0;0;0;0;0.001;0.0511;0;3.938;0;28;160;1.79999;0;56;0.032;0.044;44068969;0.0511;0;3.938;0;0.537;202.921;0;0;0;0.185;1.062;1;-1;0;0;0;0;0;0;0;0;0;-1;0.00000000;0.00000000;0.00000000;0.00000000;0.00000000;0.00000000;0.00000000;
44069032;76.7;23.7;23.7;20.9;20.7;20.7;0;0;0;0;0;0.001;0.0511;0;3.938;0;28;160;1.79999;0;56;0.03;0.047;44068999;0.0511;0;3.938;0;0.537;202.919;0;0;0;0.185;1.062;1;-1;0;0;0;0;0;0;0;0;0;-1;0.00000000;0.00000000;0.00000000;0.00000000;0.00000000;0.00000000;0.00000000;
44069065;76.7;23.7;23.7;21;20.7;20.6;0;0;0;0;0;0.001;0.0511;0;3.938;0;28;160;1.79999;0;56;0.033;0.043;44069032;0.0511;0;3.938;0;0.537;202.919;0;0;0;0.185;1.062;1;-1;0;0;0;0;0;0;0;0;0;-1;0.00000000;0.00000000;0.00000000;0.00000000;0.00000000;0.00000000;0.00000000;
44069122;76.6;23.7;23.7;21;20.7;20.6;0;0;0;0;0;0.001;0.0511;0;3.938;0;28;160;1.79999;0;56;0.029;0.049;44069065;0.0511;0;3.938;0;0.537;202.919;0;0;0;0.185;1.062;1;-1;0;0;0;0;0;0;0;0;0;-1;0.00000000;0.00000000;0.00000000;0.00000000;0.00000000;0.00000000;0.00000000;
44069152;76.7;23.7;23.7;21;20.7;20.6;0;0;0;0;0;0.001;0.0511;0;3.938;0;28;160;1.79999;0;56;0.033;0.043;44069123;0.0511;0;3.938;0;0.537;202.919;0;0;0;0.185;1.062;1;-1;0;0;0;0;0;0;0;0;0;-1;0.00000000;0.00000000;0.00000000;0.00000000;0.00000000;0.00000000;0.00000000;
44069183;76.7;23.7;23.7;20.9;20.7;20.6;0;0;0;0;0;0.001;0.0511;0;3.938;0;28;160;1.79999;0;56;0.033;0.043;44069152;0.0511;0;3.938;0;0.537;202.919;0;0;0;0.185;1.062;1;-1;0;0;0;0;0;0;0;0;0;-1;0.00000000;0.00000000;0.00000000;0.00000000;0.00000000;0.00000000;0.00000000;
44069214;76.7;23.7;23.7;21;20.7;20.6;0;0;0;0;0;0.001;0.0511;0;3.938;0;28;160;1.79999;0;56;0.034;0.042;44069184;0.0511;0;3.938;0;0.537;202.918;0;0;0;0.185;1.062;1;-1;0;0;0;0;0;0;0;0;0;-1;0.00000000;0.00000000;0.00000000;0.00000000;0.00000000;0.00000000;0.00000000;
44069247;76.7;23.7;23.7;20.9;20.7;20.6;0;0;0;0;0;0.002;0.0511;0;3.938;0;28;160;1.79999;0;56;0.034;0.04;44069214;0.0511;0;3.938;0;0.537;202.918;0;0;0;0.185;1.062;1;-1;0;0;0;0;0;0;0;0;0;-1;0.00000000;0.00000000;0.00000000;0.00000000;0.00000000;0.00000000;0.00000000;
44069276;76.7;23.7;23.7;21;20.7;20.6;0;0;0;0;0;0.001;0.0511;0;3.938;0;28;160;1.79999;0;56;0.033;0.04;44069247;0.0511;0;3.938;0;0.537;202.918;0;0;0;0.185;1.062;1;-1;0;0;0;0;0;0;0;0;0;-1;0.00000000;0.00000000;0.00000000;0.00000000;0.00000000;0.00000000;0.00000000;
44069306;76.7;23.7;23.7;21;20.8;20.5;0;0;0;0;0;-0.001;0.0511;0;3.938;0;28;160;1.79999;0;56;0.037;0.035;44069277;0.0511;0;3.938;0;0.537;202.918;0;0;0;0.185;1.062;1;-1;0;0;0;0;0;0;0;0;0;-1;0.00000000;0.00000000;0.00000000;0.00000000;0.00000000;0.00000000;0.00000000;
44069341;76.7;23.7;23.7;20.9;20.7;20.6;0;0;0;0;0;-0.001;0.0511;0;3.938;0;28;160;1.79999;0;56;0.035;0.04;44069306;0.0511;0;3.938;0;0.537;202.916;0;0;0;0.185;1.062;1;-1;0;0;0;0;0;0;0;0;0;-1;0.00000000;0.00000000;0.00000000;0.00000000;0.00000000;0.00000000;0.00000000;
44069370;76.7;23.7;23.7;20.9;20.7;20.5;0;0;0;0;0;0.001;0.0511;0;3.938;0;28;160;1.79999;0;56;0.037;0.033;44069342;0.0511;0;3.938;0;0.537;202.916;0;0;0;0.185;1.062;1;-1;0;0;0;0;0;0;0;0;0;-1;0.00000000;0.00000000;0.00000000;0.00000000;0.00000000;0.00000000;0.00000000;
44069403;76.7;23.7;23.7;21;20.7;20.5;0;0;0;0;0;0.001;0.0511;0;3.938;0;28;160;1.79999;0;56;0.032;0.044;44069370;0.0511;0;3.938;0;0.537;202.917;0;0;0;0.185;1.062;1;-1;0;0;0;0;0;0;0;0;0;-1;0.00000000;0.00000000;0.00000000;0.00000000;0.00000000;0.00000000;0.00000000;
44069458;76.7;23.7;23.7;21;20.7;20.6;0;0;0;0;0;0.001;0.0511;0;3.938;0;28;160;1.79999;0;56;0.032;0.044;44069403;0.0511;0;3.938;0;0.537;202.917;0;0;0;0.185;1.062;1;-1;0;0;0;0;0;0;0;0;0;-1;0.00000000;0.00000000;0.00000000;0.00000000;0.00000000;0.00000000;0.00000000;
44069482;76.7;23.7;23.7;20.9;20.7;20.6;0;0;0;0;0;0.001;0.0511;0;3.938;0;28;160;1.79999;0;56;0.036;0.037;44069458;0.0511;0;3.938;0;0.537;202.917;0;0;0;0.185;1.062;1;-1;0;0;0;0;0;0;0;0;0;-1;0.00000000;0.00000000;0.00000000;0.00000000;0.00000000;0.00000000;0.00000000;
44069493;76.7;23.7;23.7;21;20.7;20.6;0;0;0;0;0;0.001;0.0511;0;3.938;0;28;160;1.79999;0;56;0.03;0.045;44069483;0.0511;0;3.938;0;0.537;202.918;0;0;0;0.185;1.062;1;-1;0;0;0;0;0;0;0;0;0;-1;0.00000000;0.00000000;0.00000000;0.00000000;0.00000000;0.00000000;0.00000000;
44069530;76.6;23.7;23.7;21;20.7;20.6;0;0;0;0;0;0.001;0.0511;0;3.938;0;28;160;1.79999;0;56;0.03;0.047;44069493;0.0511;0;3.938;0;0.537;202.918;0;0;0;0.185;1.062;1;-1;0;0;0;0;0;0;0;0;0;-1;0.00000000;0.00000000;0.00000000;0.00000000;0.00000000;0.00000000;0.00000000;
44069562;76.7;23.7;23.7;21;20.7;20.6;0;0;0;0;0;0.001;0.0511;0;3.938;0;28;160;1.79999;0;56;0.03;0.048;44069530;0.0511;0;3.938;0;0.537;202.917;0;0;0;0.185;1.062;1;-1;0;0;0;0;0;0;0;0;0;-1;0.00000000;0.00000000;0.00000000;0.00000000;0.00000000;0.00000000;0.00000000;
44069591;76.7;23.7;23.8;21;20.7;20.6;0;0;0;0;0;0.001;0.0511;0;3.938;0;28;160;1.79999;0;56;0.032;0.045;44069563;0.0511;0;3.938;0;0.537;202.919;0;0;0;0.185;1.062;1;-1;0;0;0;0;0;0;0;0;0;-1;0.00000000;0.00000000;0.00000000;0.00000000;0.00000000;0.00000000;0.00000000;
44069620;76.7;23.7;23.7;21;20.7;20.6;0;0;0;0;0;0.001;0.0511;0;3.938;0;28;160;1.79999;0;56;0.027;0.053;44069593;0.0511;0;3.938;0;0.537;202.919;0;0;0;0.185;1.062;1;-1;0;0;0;0;0;0;0;0;0;-1;0.00000000;0.00000000;0.00000000;0.00000000;0.00000000;0.00000000;0.00000000;
44069675;76.7;23.7;23.7;21;20.7;20.6;0;0;0;0;0;0.001;0.0511;0;3.938;0;28;160;1.79999;0;56;0.035;0.039;44069621;0.0511;0;3.938;0;0.537;202.918;0;0;0;0.185;1.062;1;-1;0;0;0;0;0;0;0;0;0;-1;0.00000000;0.00000000;0.00000000;0.00000000;0.00000000;0.00000000;0.00000000;
44069711;76.7;23.7;23.7;20.9;20.6;20.6;0;0;0;0;0;0.001;0.0511;0;3.938;0;28;160;1.79999;0;56;0.034;0.04;44069675;0.0511;0;3.938;0;0.537;202.919;0;0;0;0.185;1.062;1;-1;0;0;0;0;0;0;0;0;0;-1;0.00000000;0.00000000;0.00000000;0.00000000;0.00000000;0.00000000;0.00000000;
44069745;76.6;23.7;23.7;20.9;20.7;20.6;0;0;0;0;0;-0.001;0.0511;0;3.938;0;28;160;1.79999;0;56;0.037;0.037;44069711;0.0511;0;3.938;0;0.537;202.919;0;0;0;0.185;1.062;1;-1;0;0;0;0;0;0;0;0;0;-1;0.00000000;0.00000000;0.00000000;0.00000000;0.00000000;0.00000000;0.00000000;
