ms_today;input_voltage;temp_mos_max;temp_mos_1;temp_mos_2;temp_mos_3;temp_motor;current_motor;current_in;d_axis_current;q_axis_current;erpm;duty_cycle;amp_hours_used;amp_hours_charged;watt_hours_used;watt_hours_charged;tachometer;tachometer_abs;encoder_position;fault_code;vesc_id;d_axis_voltage;q_axis_voltage;ms_today_setup;amp_hours_setup;amp_hours_charged_setup;watt_hours_setup;watt_hours_charged_setup;battery_level;battery_wh_tot;current_in_setup;current_motor_setup;speed_meters_per_sec;tacho_meters;tacho_abs_meters;num_vescs;ms_today_imu;roll;pitch;yaw;accX;accY;accZ;gyroX;gyroY;gyroZ;gnss_posTime;gnss_lat;gnss_lon;gnss_alt;gnss_gVel;gnss_vVel;gnss_hAcc;gnss_vAcc;
35282477;76.7;20.8;20.8;18;17.8;19.5;0;0;0;0;0;-0.001;0.0065;0;0.4984;0;6883;6907;181.8;0;56;-0.031;-0.04;35282342;0.0065;0;0.4984;0;0.543;205.188;0;0;0;48.282;48.45;1;-1;0;0;0;0;0;0;0;0;0;-1;0.00000000;0.00000000;0.00000000;0.00000000;0.00000000;0.00000000;0.00000000;
35282569;76.7;20.8;20.8;18.1;17.9;19.5;0;0;0;0;0;-0.001;0.0065;0;0.4984;0;6883;6907;181.8;0;56;-0.035;-0.034;35282478;0.0065;0;0.4984;0;0.543;205.189;0;0;0;48.282;48.45;1;-1;0;0;0;0;0;0;0;0;0;-1;0.00000000;0.00000000;0.00000000;0.00000000;0.00000000;0.00000000;0.00000000;
35282588;76.7;20.8;20.8;18;17.8;19.5;0;0;0;0;0;-0.001;0.0065;0;0.4984;0;6883;6907;181.8;0;56;-0.039;-0.027;35282569;0.0065;0;0.4984;0;0.543;205.192;0;0;0;48.282;48.45;1;-1;0;0;0;0;0;0;0;0;0;-1;0.00000000;0.00000000;0.00000000;0.00000000;0.00000000;0.00000000;0.00000000;
35282621;76.7;20.8;20.8;18.1;17.9;19.4;0;0;0;0;0;-0.001;0.0065;0;0.4984;0;6883;6907;181.8;0;56;-0.029;-0.043;35282589;0.0065;0;0.4984;0;0.543;205.193;0;0;0;48.282;48.45;1;-1;0;0;0;0;0;0;0;0;0;-1;0.00000000;0.00000000;0.00000000;0.00000000;0.00000000;0.00000000;0.00000000;
35282633;76.7;20.8;20.8;18;17.8;19.4;0;0;0;0;0;0.001;0.0065;0;0.4984;0;6883;6907;181.8;0;56;-0.03;-0.043;35282622;0.0065;0;0.4984;0;0.543;205.194;0;0;0;48.282;48.45;1;-1;0;0;0;0;0;0;0;0;0;-1;0.00000000;0.00000000;0.00000000;0.00000000;0.00000000;0.00000000;0.00000000;
35282673;76.8;20.8;20.8;18.1;17.9;19.4;0;0;0;0;0;0.002;0.0065;0;0.4984;0;6883;6907;181.8;0;56;-0.04;-0.026;35282634;0.0065;0;0.4984;0;0.543;205.194;0;0;0;48.282;48.45;1;-1;0;0;0;0;0;0;0;0;0;-1;0.00000000;0.00000000;0.00000000;0.00000000;0.00000000;0.00000000;0.00000000;
35282702;76.7;20.8;20.8;18;17.9;19.4;0;0;0;0;0;0;0.0065;0;0.4984;0;6883;6907;181.8;0;56;-0.03;-0.042;35282674;0.0065;0;0.4984;0;0.543;205.192;0;0;0;48.282;48.45;1;-1;0;0;0;0;0;0;0;0;0;-1;0.00000000;0.00000000;0.00000000;0.00000000;0.00000000;0.00000000;0.00000000;
35282734;76.8;20.8;20.8;18;17.8;19.4;0;0;0;0;0;-0.001;0.0065;0;0.4984;0;6883;6907;181.8;0;56;-0.028;-0.046;35282703;0.0065;0;0.4984;0;0.543;205.193;0;0;0;48.282;48.45;1;-1;0;0;0;0;0;0;0;0;0;-1;0.00000000;0.00000000;0.00000000;0.00000000;0.00000000;0.00000000;0.00000000;
35282763;76.7;20.8;20.8;18.1;17.8;19.4;0;0;0;0;0;-0.001;0.0065;0;0.4984;0;6883;6907;181.8;0;56;-0.026;-0.048;35282735;0.0065;0;0.4984;0;0.543;205.193;0;0;0;48.282;48.45;1;-1;0;0;0;0;0;0;0;0;0;-1;0.00000000;0.00000000;0.00000000;0.00000000;0.00000000;0.00000000;0.00000000;
35282797;76.8;20.8;20.8;18.1;17.9;19.4;0;0;0;0;0;-0.001;0.0065;0;0.4984;0;6883;6907;181.8;0;56;-0.036;-0.031;35282764;0.0065;0;0.4984;0;0.543;205.194;0;0;0;48.282;48.45;1;-1;0;0;0;0;0;0;0;0;0;-1;0.00000000;0.00000000;0.00000000;0.00000000;0.00000000;0.00000000;0.00000000;
35282831;76.7;20.8;20.8;18.1;17.9;19.4;0;0;0;0;0;-0.002;0.0065;0;0.4984;0;6883;6907;181.8;0;56;-0.028;-0.044;35282797;0.0065;0;0.4984;0;0.543;205.195;0;0;0;48.282;48.45;1;-1;0;0;0;0;0;0;0;0;0;-1;0.00000000;0.00000000;0.00000000;0.00000000;0.00000000;0.00000000;0.00000000;
35282863;76.7;20.8;20.8;18;17.8;19.5;0;0;0;0;0;-0.001;0.0065;0;0.4984;0;6883;6907;181.8;0;56;-0.036;-0.033;35282831;0.0065;0;0.4984;0;0.543;205.193;0;0;0;48.282;48.45;1;-1;0;0;0;0;0;0;0;0;0;-1;0.00000000;0.00000000;0.00000000;0.00000000;0.00000000;0.00000000;0.00000000;
35282896;76.7;20.8;20.8;18;17.8;19.4;0;0;0;0;0;-0.001;0.0065;0;0.4984;0;6883;6907;181.8;0;56;-0.034;-0.035;35282863;0.0065;0;0.4984;0;0.543;205.192;0;0;0;48.282;48.45;1;-1;0;0;0;0;0;0;0;0;0;-1;0.00000000;0.00000000;0.00000000;0.00000000;0.00000000;0.00000000;0.00000000;
35282955;76.7;20.8;20.8;18.1;17.9;19.4;0;0;0;0;0;-0.001;0.0065;0;0.4984;0;6883;6907;181.8;0;56;-0.035;-0.033;35282896;0.0065;0;0.4984;0;0.543;205.19;0;0;0;48.282;48.45;1;-1;0;0;0;0;0;0;0;0;0;-1;0.00000000;0.00000000;0.00000000;0.00000000;0.00000000;0.00000000;0.00000000;
35282982;76.7;20.8;20.8;18;17.8;19.5;0;0;0;0;0;-0.001;0.0065;0;0.4984;0;6883;6907;181.8;0;56;-0.034;-0.036;35282955;0.0065;0;0.4984;0;0.543;205.191;0;0;0;48.282;48.45;1;-1;0;0;0;0;0;0;0;0;0;-1;0.00000000;0.00000000;0.00000000;0.00000000;0.00000000;0.00000000;0.00000000;
35283012;76.7;20.8;20.9;18.1;17.9;19.4;0;0;0;0;0;-0.001;0.0065;0;0.4984;0;6883;6907;181.8;0;56;-0.035;-0.033;35282983;0.0065;0;0.4984;0;0.543;205.192;0;0;0;48.282;48.45;1;-1;0;0;0;0;0;0;0;0;0;-1;0.00000000;0.00000000;0.00000000;0.00000000;0.00000000;0.00000000;0.00000000;
35283040;76.7;20.8;20.8;18;17.8;19.5;0;0;0;0;0;-0.001;0.0065;0;0.4984;0;6883;6907;181.8;0;56;-0.037;-0.031;35283013;0.0065;0;0.4984;0;0.543;205.193;0;0;0;48.282;48.45;1;-1;0;0;0;0;0;0;0;0;0;-1;0.00000000;0.00000000;0.00000000;0.00000000;0.00000000;0.00000000;0.00000000;
35283071;76.7;20.8;20.8;18;17.8;19.5;0;0;0;0;0;-0.001;0.0065;0;0.4984;0;6883;6907;181.8;0;56;-0.034;-0.035;35283040;0.0065;0;0.4984;0;0.543;205.193;0;0;0;48.282;48.45;1;-1;0;0;0;0;0;0;0;0;0;-1;0.00000000;0.00000000;0.00000000;0.00000000;0.00000000;0.00000000;0.00000000;
35283129;76.7;20.8;20.8;18;17.8;19.5;0;0;0;0;0;0.001;0.0065;0;0.4984;0;6883;6907;181.8;0;56;-0.033;-0.037;35283071;0.0065;0;0.4984;0;0.543;205.194;0;0;0;48.282;48.45;1;-1;0;0;0;0;0;0;0;0;0;-1;0.00000000;0.00000000;0.00000000;0.00000000;0.00000000;0.00000000;0.00000000;
35283138;76.7;20.8;20.8;18.1;17.9;19.5;0;0;0;0;0;-0.001;0.0065;0;0.4984;0;6883;6907;181.8;0;56;-0.036;-0.034;35283129;0.0065;0;0.4984;0;0.543;205.192;0;0;0;48.282;48.45;1;-1;0;0;0;0;0;0;0;0;0;-1;0.00000000;0.00000000;0.00000000;0.00000000;0.00000000;0.00000000;0.00000000;
35283167;76.8;20.8;20.7;18.1;17.9;19.5;0;0;0;0;0;-0.001;0.0065;0;0.4984;0;6883;6907;181.8;0;56;-0.035;-0.034;35283139;0.0065;0;0.4984;0;0.543;205.193;0;0;0;48.282;48.45;1;-1;0;0;0;0;0;0;0;0;0;-1;0.00000000;0.00000000;0.00000000;0.00000000;0.00000000;0.00000000;0.00000000;
35283197;76.7;20.8;20.8;18;17.8;19.5;0;0;0;0;0;0.001;0.0065;0;0.4984;0;6883;6907;181.8;0;56;-0.029;-0.045;35283168;0.0065;0;0.4984;0;0.543;205.194;0;0;0;48.282;48.45;1;-1;0;0;0;0;0;0;0;0;0;-1;0.00000000;0.00000000;0.00000000;0.00000000;0.00000000;0.00000000;0.00000000;
35283235;76.8;20.8;20.8;18;17.8;19.5;0;0;0;0;0;-0.001;0.0065;0;0.4984;0;6883;6907;181.8;0;56;-0.033;-0.038;35283197;0.0065;0;0.4984;0;0.543;205.195;0;0;0;48.282;48.45;1;-1;0;0;0;0;0;0;0;0;0;-1;0.00000000;0.00000000;0.00000000;0.00000000;0.00000000;0.00000000;0.00000000;
35283267;76.8;20.8;20.8;18;17.8;19.5;0;0;0;0;0;-0.001;0.0065;0;0.4984;0;6883;6907;181.8;0;56;-0.031;-0.04;35283235;0.0065;0;0.4984;0;0.543;205.196;0;0;0;48.282;48.45;1;-1;0;0;0;0;0;0;0;0;0;-1;0.00000000;0.00000000;0.00000000;0.00000000;0.00000000;0.00000000;0.00000000;
35283297;76.7;20.8;20.8;18;17.8;19.5;0;0;0;0;0;-0.001;0.0065;0;0.4984;0;6883;6907;181.8;0;56;-0.033;-0.035;35283267;0.0065;0;0.4984;0;0.543;205.196;0;0;0;48.282;48.45;1;-1;0;0;0;0;0;0;0;0;0;-1;0.00000000;0.00000000;0.00000000;0.00000000;0.00000000;0.00000000;0.00000000;
35283354;76.7;20.8;20.8;18;17.9;19.4;0;0;0;0;0;0.001;0.0065;0;0.4984;0;6883;6907;181.8;0;56;-0.032;-0.038;35283298;0.0065;0;0.4984;0;0.543;205.198;0;0;0;48.282;48.45;1;-1;0;0;0;0;0;0;0;0;0;-1;0.00000000;0.00000000;0.00000000;0.00000000;0.00000000;0.00000000;0.00000000;
35283390;76.8;20.8;20.8;18.1;17.9;19.4;0;0;0;0;0;-0.001;0.0065;0;0.4984;0;6883;6907;181.8;0;56;-0.035;-0.036;35283354;0.0065;0;0.4984;0;0.543;205.197;0;0;0;48.282;48.45;1;-1;0;0;0;0;0;0;0;0;0;-1;0.00000000;0.00000000;0.00000000;0.00000000;0.00000000;0.00000000;0.00000000;
35283421;76.7;20.8;20.8;18.1;17.9;19.4;0;0;0;0;0;-0.001;0.0065;0;0.4984;0;6883;6907;181.8;0;56;-0.033;-0.037;35283391;0.0065;0;0.4984;0;0.543;205.196;0;0;0;48.282;48.45;1;-1;0;0;0;0;0;0;0;0;0;-1;0.00000000;0.00000000;0.00000000;0.00000000;0.00000000;0.00000000;0.00000000;
35283452;76.7;20.8;20.8;17.8;17.6;19.4;0;0;0;0;0;-0.001;0.0065;0;0.4984;0;6883;6907;181.8;0;56;-0.026;-0.049;35283422;0.0065;0;0.4984;0;0.543;205.198;0;0;0;48.282;48.45;1;-1;0;0;0;0;0;0;0;0;0;-1;0.00000000;0.00000000;0.00000000;0.00000000;0.00000000;0.00000000;0.00000000;
35283485;76.7;20.8;20.8;18;17.8;19.4;0;0;0;0;0;-0.001;0.0065;0;0.4984;0;6883;6907;181.8;0;56;-0.033;-0.037;35283453;0.0065;0;0.4984;0;0.543;205.198;0;0;0;48.282;48.45;1;-1;0;0;0;0;0;0;0;0;0;-1;0.00000000;0.00000000;0.00000000;0.00000000;0.00000000;0.00000000;0.00000000;
35283539;76.7;20.8;20.8;17.9;17.7;19.4;0;0;0;0;0;-0.001;0.0065;0;0.4984;0;6883;6907;181.8;0;56;-0.037;-0.032;35283485;0.0065;0;0.4984;0;0.543;205.2;0;0;0;48.282;48.45;1;-1;0;0;0;0;0;0;0;0;0;-1;0.00000000;0.00000000;0.00000000;0.00000000;0.00000000;0.00000000;0.00000000;
35283571;76.7;20.8;20.8;18;17.8;19.4;0;0;0;0;0;-0.001;0.0065;0;0.4984;0;6883;6907;181.8;0;56;-0.032;-0.04;35283539;0.0065;0;0.4984;0;0.543;205.197;0;0;0;48.282;48.45;1;-1;0;0;0;0;0;0;0;0;0;-1;0.00000000;0.00000000;0.00000000;0.00000000;0.00000000;0.00000000;0.00000000;
35283601;76.7;20.8;20.8;18;17.8;19.4;0;0;0;0;0;-0.001;0.0065;0;0.4984;0;6883;6907;181.8;0;56;-0.031;-0.041;35283573;0.0065;0;0.4984;0;0.543;205.197;0;0;0;48.282;48.45;1;-1;0;0;0;0;0;0;0;0;0;-1;0.00000000;0.00000000;0.00000000;0.00000000;0.00000000;0.00000000;0.00000000;
35283633;76.7;20.8;20.8;18;17.8;19.4;0;0;0;0;0;0.001;0.0065;0;0.4984;0;6883;6907;181.8;0;56;-0.034;-0.037;35283601;0.0065;0;0.4984;0;0.543;205.198;0;0;0;48.282;48.45;1;-1;0;0;0;0;0;0;0;0;0;-1;0.00000000;0.00000000;0.00000000;0.00000000;0.00000000;0.00000000;0.00000000;
35283670;76.7;20.8;20.9;18;17.8;19.4;0;0;0;0;0;-0.001;0.0065;0;0.4984;0;6883;6907;181.8;0;56;-0.032;-0.039;35283640;0.0065;0;0.4984;0;0.543;205.197;0;0;0;48.282;48.45;1;-1;0;0;0;0;0;0;0;0;0;-1;0.00000000;0.00000000;0.00000000;0.00000000;0.00000000;0.00000000;0.00000000;
35283704;76.8;20.8;20.8;18.1;17.9;19.5;0;0;0;0;0;-0.001;0.0065;0;0.4984;0;6883;6907;181.8;0;56;-0.033;-0.035;35283671;0.0065;0;0.4984;0;0.543;205.197;0;0;0;48.282;48.45;1;-1;0;0;0;0;0;0;0;0;0;-1;0.00000000;0.00000000;0.00000000;0.00000000;0.00000000;0.00000000;0.00000000;
35283771;76.7;20.8;20.8;18;17.8;19.5;0;0;0;0;0;-0.001;0.0065;0;0.4984;0;6883;6907;181.8;0;56;-0.034;-0.035;35283705;0.0065;0;0.4984;0;0.543;205.198;0;0;0;48.282;48.45;1;-1;0;0;0;0;0;0;0;0;0;-1;0.00000000;0.00000000;0.00000000;0.00000000;0.00000000;0.00000000;0.00000000;
35283792;76.7;20.8;20.9;18.1;17.9;19.5;0;0;0;0;0;-0.001;0.0065;0;0.4984;0;6883;6907;181.8;0;56;-0.035;-0.035;35283771;0.0065;0;0.4984;0;0.543;205.199;0;0;0;48.282;48.45;1;-1;0;0;0;0;0;0;0;0;0;-1;0.00000000;0.00000000;0.00000000;0.00000000;0.00000000;0.00000000;0.00000000;
35283822;76.7;20.8;20.8;18.1;17.9;19.5;0;0;0;0;0;0.001;0.0065;0;0.4984;0;6883;6907;181.8;0;56;-0.033;-0.038;35283792;0.0065;0;0.4984;0;0.543;205.198;0;0;0;48.282;48.45;1;-1;0;0;0;0;0;0;0;0;0;-1;0.00000000;0.00000000;0.00000000;0.00000000;0.00000000;0.00000000;0.00000000;
35283852;76.7;20.8;20.8;18;17.8;19.5;0;0;0;0;0;-0.001;0.0065;0;0.4984;0;6883;6907;181.8;0;56;-0.04;-0.027;35283822;0.0065;0;0.4984;0;0.543;205.202;0;0;0;48.282;48.45;1;-1;0;0;0;0;0;0;0;0;0;-1;0.00000000;0.00000000;0.00000000;0.00000000;0.00000000;0.00000000;0.00000000;
35283889;76.8;20.8;20.9;18;17.9;19.5;0;0;0;0;0;-0.001;0.0065;0;0.4984;0;6883;6907;181.8;0;56;-0.033;-0.037;35283852;0.0065;0;0.4984;0;0.543;205.202;0;0;0;48.282;48.45;1;-1;0;0;0;0;0;0;0;0;0;-1;0.00000000;0.00000000;0.00000000;0.00000000;0.00000000;0.00000000;0.00000000;
35283917;76.7;20.8;20.8;18;17.8;19.4;0;0;0;0;0;-0.001;0.0065;0;0.4984;0;6883;6907;181.8;0;56;-0.033;-0.039;35283889;0.0065;0;0.4984;0;0.543;205.204;0;0;0;48.282;48.45;1;-1;0;0;0;0;0;0;0;0;0;-1;0.00000000;0.00000000;0.00000000;0.00000000;0.00000000;0.00000000;0.00000000;
35283946;76.8;20.8;20.8;18;17.8;19.5;0;0;0;0;0;-0.001;0.0065;0;0.4984;0;6883;6907;181.8;0;56;-0.03;-0.043;35283917;0.0065;0;0.4984;0;0.543;205.204;0;0;0;48.282;48.45;1;-1;0;0;0;0;0;0;0;0;0;-1;0.00000000;0.00000000;0.00000000;0.00000000;0.00000000;0.00000000;0.00000000;
35283979;76.7;20.8;20.8;18;17.8;19.5;0;0;0;0;0;-0.002;0.0065;0;0.4984;0;6883;6907;181.8;0;56;-0.036;-0.033;35283948;0.0065;0;0.4984;0;0.543;205.204;0;0;0;48.282;48.45;1;-1;0;0;0;0;0;0;0;0;0;-1;0.00000000;0.00000000;0.00000000;0.00000000;0.00000000;0.00000000;0.00000000;
35284012;76.7;20.8;20.8;18;17.9;19.5;0;0;0;0;0;0.001;0.0065;0;0.4984;0;6883;6907;181.8;0;56;-0.034;-0.035;35283980;0.0065;0;0.4984;0;0.543;205.203;0;0;0;48.282;48.45;1;-1;0;0;0;0;0;0;0;0;0;-1;0.00000000;0.00000000;0.00000000;0.00000000;0.00000000;0.00000000;0.00000000;
35284047;76.7;20.8;20.8;18;17.8;19.5;0;0;0;0;0;-0.001;0.0065;0;0.4984;0;6883;6907;181.8;0;56;-0.029;-0.045;35284013;0.0065;0;0.4984;0;0.543;205.203;0;0;0;48.282;48.45;1;-1;0;0;0;0;0;0;0;0;0;-1;0.00000000;0.00000000;0.00000000;0.00000000;0.00000000;0.00000000;0.00000000;
35284104;76.7;20.8;20.8;18;17.8;19.6;0;0;0;0;0;-0.003;0.0065;0;0.4984;0;6883;6907;181.8;0;56;-0.033;-0.036;35284047;0.0065;0;0.4984;0;0.543;205.203;0;0;0;48.282;48.45;1;-1;0;0;0;0;0;0;0;0;0;-1;0.00000000;0.00000000;0.00000000;0.00000000;0.00000000;0.00000000;0.00000000;
35284134;76.7;20.8;20.8;18;17.8;19.5;0;0;0;0;0;-0.001;0.0065;0;0.4984;0;6883;6907;181.8;0;56;-0.026;-0.05;35284104;0.0065;0;0.4984;0;0.543;205.202;0;0;0;48.282;48.45;1;-1;0;0;0;0;0;0;0;0;0;-1;0.00000000;0.00000000;0.00000000;0.00000000;0.00000000;0.00000000;0.00000000;
35284171;76.7;20.8;20.8;18.1;17.9;19.6;0;0;0;0;0;-0.001;0.0065;0;0.4984;0;6883;6907;181.8;0;56;-0.036;-0.033;35284134;0.0065;0;0.4984;0;0.543;205.204;0;0;0;48.282;48.45;1;-1;0;0;0;0;0;0;0;0;0;-1;0.00000000;0.00000000;0.00000000;0.00000000;0.00000000;0.00000000;0.00000000;
35284201;76.7;20.8;20.8;18;17.8;19.6;0;0;0;0;0;-0.001;0.0065;0;0.4984;0;6883;6907;181.8;0;56;-0.031;-0.04;35284172;0.0065;0;0.4984;0;0.543;205.202;0;0;0;48.282;48.45;1;-1;0;0;0;0;0;0;0;0;0;-1;0.00000000;0.00000000;0.00000000;0.00000000;0.00000000;0.00000000;0.00000000;
35284234;76.7;20.8;20.9;18.1;17.9;19.5;0;0;0;0;0;-0.001;0.0065;0;0.4984;0;6883;6907;181.8;0;56;-0.033;-0.037;35284202;0.0065;0;0.4984;0;0.543;205.202;0;0;0;48.282;48.45;1;-1;0;0;0;0;0;0;0;0;0;-1;0.00000000;0.00000000;0.00000000;0.00000000;0.00000000;0.00000000;0.00000000;
35284265;76.7;20.8;20.8;18;17.8;19.5;0;0;0;0;0;-0.001;0.0065;0;0.4984;0;6883;6907;181.8;0;56;-0.031;-0.039;35284234;0.0065;0;0.4984;0;0.543;205.203;0;0;0;48.282;48.45;1;-1;0;0;0;0;0;0;0;0;0;-1;0.00000000;0.00000000;0.00000000;0.00000000;0.00000000;0.00000000;0.00000000;
35284321;76.8;20.8;20.8;18.1;17.9;19.5;0;0;0;0;0;-0.001;0.0065;0;0.4984;0;6883;6907;181.8;0;56;-0.035;-0.033;35284265;0.0065;0;0.4984;0;0.543;205.204;0;0;0;48.282;48.45;1;-1;0;0;0;0;0;0;0;0;0;-1;0.00000000;0.00000000;0.00000000;0.00000000;0.00000000;0.00000000;0.00000000;
35284353;76.7;20.8;20.8;18;17.9;19.6;0;0;0;0;0;-0.001;0.0065;0;0.4984;0;6883;6907;181.8;0;56;-0.031;-0.043;35284322;0.0065;0;0.4984;0;0.543;205.204;0;0;0;48.282;48.45;1;-1;0;0;0;0;0;0;0;0;0;-1;0.00000000;0.00000000;0.00000000;0.00000000;0.00000000;0.00000000;0.00000000;
35284386;76.8;20.8;20.8;18;17.8;19.5;0;0;0;0;0;-0.001;0.0065;0;0.4984;0;6883;6907;181.8;0;56;-0.034;-0.036;35284353;0.0065;0;0.4984;0;0.543;205.206;0;0;0;48.282;48.45;1;-1;0;0;0;0;0;0;0;0;0;-1;0.00000000;0.00000000;0.00000000;0.00000000;0.00000000;0.00000000;0.00000000;
35284418;76.8;20.8;20.8;18;17.8;19.5;0;0;0;0;0;-0.001;0.0065;0;0.4984;0;6883;6907;181.8;0;56;-0.031;-0.041;35284386;0.0065;0;0.4984;0;0.543;205.206;0;0;0;48.282;48.45;1;-1;0;0;0;0;0;0;0;0;0;-1;0.00000000;0.00000000;0.00000000;0.00000000;0.00000000;0.00000000;0.00000000;
35284448;76.7;20.8;20.8;18.1;17.9;19.5;0;0;0;0;0;-0.001;0.0065;0;0.4984;0;6883;6907;181.8;0;56;-0.028;-0.045;35284419;0.0065;0;0.4984;0;0.543;205.204;0;0;0;48.282;48.45;1;-1;0;0;0;0;0;0;0;0;0;-1;0.00000000;0.00000000;0.00000000;0.00000000;0.00000000;0.00000000;0.00000000;
35284502;76.7;20.8;20.8;18.1;17.9;19.6;0;0;0;0;0;-0.001;0.0065;0;0.4984;0;6883;6907;181.8;0;56;-0.03;-0.043;35284449;0.0065;0;0.4984;0;0.543;205.204;0;0;0;48.282;48.45;1;-1;0;0;0;0;0;0;0;0;0;-1;0.00000000;0.00000000;0.00000000;0.00000000;0.00000000;0.00000000;0.00000000;
35284513;76.7;20.8;20.8;17.9;17.8;19.5;0;0;0;0;0;-0.001;0.0065;0;0.4984;0;6883;6907;181.8;0;56;-0.034;-0.037;35284503;0.0065;0;0.4984;0;0.543;205.205;0;0;0;48.282;48.45;1;-1;0;0;0;0;0;0;0;0;0;-1;0.00000000;0.00000000;0.00000000;0.00000000;0.00000000;0.00000000;0.00000000;
35284540;76.7;20.8;20.8;18.1;17.9;19.6;0;0;0;0;0;-0.001;0.0065;0;0.4984;0;6883;6907;181.8;0;56;-0.037;-0.033;35284514;0.0065;0;0.4984;0;0.543;205.206;0;0;0;48.282;48.45;1;-1;0;0;0;0;0;0;0;0;0;-1;0.00000000;0.00000000;0.00000000;0.00000000;0.00000000;0.00000000;0.00000000;
35284571;76.8;20.8;20.8;18.1;17.9;19.5;0;0;0;0;0;-0.001;0.0065;0;0.4984;0;6883;6907;181.8;0;56;-0.031;-0.042;35284542;0.0065;0;0.4984;0;0.543;205.206;0;0;0;48.282;48.45;1;-1;0;0;0;0;0;0;0;0;0;-1;0.00000000;0.00000000;0.00000000;0.00000000;0.00000000;0.00000000;0.00000000;
35284603;76.7;20.8;20.8;18;17.8;19.5;0;0;0;0;0;-0.002;0.0065;0;0.4984;0;6883;6907;181.8;0;56;-0.036;-0.032;35284572;0.0065;0;0.4984;0;0.543;205.206;0;0;0;48.282;48.45;1;-1;0;0;0;0;0;0;0;0;0;-1;0.00000000;0.00000000;0.00000000;0.00000000;0.00000000;0.00000000;0.00000000;
35284634;76.7;20.8;20.8;18;17.8;19.4;0;0;0;0;0;-0.001;0.0065;0;0.4984;0;6883;6907;181.8;0;56;-0.031;-0.04;35284603;0.0065;0;0.4984;0;0.543;205.207;0;0;0;48.282;48.45;1;-1;0;0;0;0;0;0;0;0;0;-1;0.00000000;0.00000000;0.00000000;0.00000000;0.00000000;0.00000000;0.00000000;
35284667;76.8;20.8;20.8;18;17.8;19.4;0;0;0;0;0;0.001;0.0065;0;0.4984;0;6883;6907;181.8;0;56;-0.034;-0.035;35284635;0.0065;0;0.4984;0;0.543;205.209;0;0;0;48.282;48.45;1;-1;0;0;0;0;0;0;0;0;0;-1;0.00000000;0.00000000;0.00000000;0.00000000;0.00000000;0.00000000;0.00000000;
35284717;76.7;20.8;20.8;18.1;17.9;19.5;0;0;0;0;0;-0.001;0.0065;0;0.4984;0;6883;6907;181.8;0;56;-0.033;-0.039;35284667;0.0065;0;0.4984;0;0.543;205.207;0;0;0;48.282;48.45;1;-1;0;0;0;0;0;0;0;0;0;-1;0.00000000;0.00000000;0.00000000;0.00000000;0.00000000;0.00000000;0.00000000;
35284730;76.7;20.8;20.8;18.1;17.9;19.4;0;0;0;0;0;-0.001;0.0065;0;0.4984;0;6883;6907;181.8;0;56;-0.032;-0.039;35284718;0.0065;0;0.4984;0;0.543;205.206;0;0;0;48.282;48.45;1;-1;0;0;0;0;0;0;0;0;0;-1;0.00000000;0.00000000;0.00000000;0.00000000;0.00000000;0.00000000;0.00000000;
35284759;76.7;20.8;20.8;18;17.8;19.5;0;0;0;0;0;-0.001;0.0065;0;0.4984;0;6883;6907;181.8;0;56;-0.03;-0.043;35284730;0.0065;0;0.4984;0;0.543;205.207;0;0;0;48.282;48.45;1;-1;0;0;0;0;0;0;0;0;0;-1;0.00000000;0.00000000;0.00000000;0.00000000;0.00000000;0.00000000;0.00000000;
35284791;76.7;20.8;20.8;18;17.8;19.4;0;0;0;0;0;-0.001;0.0065;0;0.4984;0;6883;6907;181.8;0;56;-0.032;-0.04;35284759;0.0065;0;0.4984;0;0.543;205.207;0;0;0;48.282;48.45;1;-1;0;0;0;0;0;0;0;0;0;-1;0.00000000;0.00000000;0.00000000;0.00000000;0.00000000;0.00000000;0.00000000;
35284823;76.7;20.8;20.8;18;17.9;19.4;0;0;0;0;0;-0.001;0.0065;0;0.4984;0;6883;6907;181.8;0;56;-0.031;-0.041;35284792;0.0065;0;0.4984;0;0.543;205.207;0;0;0;48.282;48.45;1;-1;0;0;0;0;0;0;0;0;0;-1;0.00000000;0.00000000;0.00000000;0.00000000;0.00000000;0.00000000;0.00000000;
35284852;76.7;20.8;20.8;18;17.8;19.4;0;0;0;0;0;-0.001;0.0065;0;0.4984;0;6883;6907;181.8;0;56;-0.034;-0.037;35284823;0.0065;0;0.4984;0;0.543;205.206;0;0;0;48.282;48.45;1;-1;0;0;0;0;0;0;0;0;0;-1;0.00000000;0.00000000;0.00000000;0.00000000;0.00000000;0.00000000;0.00000000;
35284914;76.7;20.8;20.9;18.1;17.9;19.5;0;0;0;0;0;-0.001;0.0065;0;0.4984;0;6883;6907;181.8;0;56;-0.036;-0.031;35284852;0.0065;0;0.4984;0;0.543;205.207;0;0;0;48.282;48.45;1;-1;0;0;0;0;0;0;0;0;0;-1;0.00000000;0.00000000;0.00000000;0.00000000;0.00000000;0.00000000;0.00000000;
35284949;76.8;20.8;20.8;18.1;17.8;19.5;0;0;0;0;0;-0.001;0.0065;0;0.4984;0;6883;6907;181.8;0;56;-0.027;-0.048;35284914;0.0065;0;0.4984;0;0.543;205.207;0;0;0;48.282;48.45;1;-1;0;0;0;0;0;0;0;0;0;-1;0.00000000;0.00000000;0.00000000;0.00000000;0.00000000;0.00000000;0.00000000;
35284978;76.7;20.8;20.8;18;17.8;19.4;0;0;0;0;0;-0.001;0.0065;0;0.4984;0;6883;6907;181.8;0;56;-0.034;-0.037;35284949;0.0065;0;0.4984;0;0.543;205.205;0;0;0;48.282;48.45;1;-1;0;0;0;0;0;0;0;0;0;-1;0.00000000;0.00000000;0.00000000;0.00000000;0.00000000;0.00000000;0.00000000;
35285010;76.8;20.8;20.8;18;17.8;19.4;0;0;0;0;0;-0.001;0.0065;0;0.4984;0;6883;6907;181.8;0;56;-0.034;-0.035;35284978;0.0065;0;0.4984;0;0.543;205.207;0;0;0;48.282;48.45;1;-1;0;0;0;0;0;0;0;0;0;-1;0.00000000;0.00000000;0.00000000;0.00000000;0.00000000;0.00000000;0.00000000;
35285039;76.7;20.8;20.9;18.1;17.9;19.4;0;0;0;0;0;-0.001;0.0065;0;0.4984;0;6883;6907;181.8;0;56;-0.035;-0.035;35285011;0.0065;0;0.4984;0;0.543;205.207;0;0;0;48.282;48.45;1;-1;0;0;0;0;0;0;0;0;0;-1;0.00000000;0.00000000;0.00000000;0.00000000;0.00000000;0.00000000;0.00000000;
35285071;76.7;20.8;20.9;18.1;17.9;19.4;0;0;0;0;0;-0.001;0.0065;0;0.4984;0;6883;6907;181.8;0;56;-0.038;-0.029;35285039;0.0065;0;0.4984;0;0.543;205.209;0;0;0;48.282;48.45;1;-1;0;0;0;0;0;0;0;0;0;-1;0.00000000;0.00000000;0.00000000;0.00000000;0.00000000;0.00000000;0.00000000;
35285101;76.7;20.8;20.8;18;17.8;19.4;0;0;0;0;0;0.001;0.0065;0;0.4984;0;6883;6907;181.8;0;56;-0.032;-0.038;35285072;0.0065;0;0.4984;0;0.543;205.208;0;0;0;48.282;48.45;1;-1;0;0;0;0;0;0;0;0;0;-1;0.00000000;0.00000000;0.00000000;0.00000000;0.00000000;0.00000000;0.00000000;
35285149;76.7;20.8;20.7;18;17.8;19.4;0;0;0;0;0;-0.001;0.0065;0;0.4984;0;6883;6907;181.8;0;56;-0.033;-0.038;35285102;0.0065;0;0.4984;0;0.543;205.205;0;0;0;48.282;48.45;1;-1;0;0;0;0;0;0;0;0;0;-1;0.00000000;0.00000000;0.00000000;0.00000000;0.00000000;0.00000000;0.00000000;
35285186;76.7;20.8;20.8;18.1;17.9;19.5;0;0;0;0;0;-0.001;0.0065;0;0.4984;0;6883;6907;181.8;0;56;-0.037;-0.031;35285149;0.0065;0;0.4984;0;0.543;205.203;0;0;0;48.282;48.45;1;-1;0;0;0;0;0;0;0;0;0;-1;0.00000000;0.00000000;0.00000000;0.00000000;0.00000000;0.00000000;0.00000000;
35285233;76.7;20.8;20.8;18;17.8;19.5;0;0;0;0;0;-0.002;0.0065;0;0.4984;0;6883;6907;181.8;0;56;-0.026;-0.049;35285186;0.0065;0;0.4984;0;0.543;205.205;0;0;0;48.282;48.45;1;-1;0;0;0;0;0;0;0;0;0;-1;0.00000000;0.00000000;0.00000000;0.00000000;0.00000000;0.00000000;0.00000000;
35285299;76.7;20.8;20.8;18;17.9;19.4;0;0;0;0;0;-0.001;0.0065;0;0.4984;0;6883;6907;181.8;0;56;-0.034;-0.036;35285234;0.0065;0;0.4984;0;0.543;205.204;0;0;0;48.282;48.45;1;-1;0;0;0;0;0;0;0;0;0;-1;0.00000000;0.00000000;0.00000000;0.00000000;0.00000000;0.00000000;0.00000000;
35285331;76.8;20.8;20.8;18.1;17.9;19.4;0;0;0;0;0;-0.001;0.0065;0;0.4984;0;6883;6907;181.8;0;56;-0.03;-0.043;35285300;0.0065;0;0.4984;0;0.543;205.204;0;0;0;48.282;48.45;1;-1;0;0;0;0;0;0;0;0;0;-1;0.00000000;0.00000000;0.00000000;0.00000000;0.00000000;0.00000000;0.00000000;
35285361;76.7;20.8;20.8;18;17.8;19.5;0;0;0;0;0;-0.001;0.0065;0;0.4984;0;6883;6907;181.8;0;56;-0.036;-0.033;35285333;0.0065;0;0.4984;0;0.543;205.204;0;0;0;48.282;48.45;1;-1;0;0;0;0;0;0;0;0;0;-1;0.00000000;0.00000000;0.00000000;0.00000000;0.00000000;0.00000000;0.00000000;
35285387;76.7;20.8;20.8;18.1;17.9;19.4;0;0;0;0;0;-0.001;0.0065;0;0.4984;0;6883;6907;181.8;0;56;-0.033;-0.039;35285361;0.0065;0;0.4984;0;0.543;205.206;0;0;0;48.282;48.45;1;-1;0;0;0;0;0;0;0;0;0;-1;0.00000000;0.00000000;0.00000000;0.00000000;0.00000000;0.00000000;0.00000000;
35285417;76.7;20.8;20.8;18;17.8;19.4;0;0;0;0;0;-0.002;0.0065;0;0.4984;0;6883;6907;181.8;0;56;-0.03;-0.042;35285388;0.0065;0;0.4984;0;0.543;205.206;0;0;0;48.282;48.45;1;-1;0;0;0;0;0;0;0;0;0;-1;0.00000000;0.00000000;0.00000000;0.00000000;0.00000000;0.00000000;0.00000000;
35285473;76.7;20.8;20.8;18;17.8;19.5;0;0;0;0;0;-0.001;0.0065;0;0.4984;0;6883;6907;181.8;0;56;-0.034;-0.035;35285417;0.0065;0;0.4984;0;0.543;205.207;0;0;0;48.282;48.45;1;-1;0;0;0;0;0;0;0;0;0;-1;0.00000000;0.00000000;0.00000000;0.00000000;0.00000000;0.00000000;0.00000000;
35285510;76.8;20.8;20.9;18;17.8;19.4;0;0;0;0;0;-0.001;0.0065;0;0.4984;0;6883;6907;181.8;0;56;-0.038;-0.028;35285473;0.0065;0;0.4984;0;0.543;205.208;0;0;0;48.282;48.45;1;-1;0;0;0;0;0;0;0;0;0;-1;0.00000000;0.00000000;0.00000000;0.00000000;0.00000000;0.00000000;0.00000000;
35285531;76.8;20.8;20.7;18;17.8;19.5;0;0;0;0;0;-0.001;0.0065;0;0.4984;0;6883;6907;181.8;0;56;-0.035;-0.036;35285511;0.0065;0;0.4984;0;0.543;205.208;0;0;0;48.282;48.45;1;-1;0;0;0;0;0;0;0;0;0;-1;0.00000000;0.00000000;0.00000000;0.00000000;0.00000000;0.00000000;0.00000000;
35285571;76.7;20.8;20.8;18.1;17.9;19.5;0;0;0;0;0;-0.001;0.0065;0;0.4984;0;6883;6907;181.8;0;56;-0.034;-0.036;35285532;0.0065;0;0.4984;0;0.543;205.209;0;0;0;48.282;48.45;1;-1;0;0;0;0;0;0;0;0;0;-1;0.00000000;0.00000000;0.00000000;0.00000000;0.00000000;0.00000000;0.00000000;
35285593;76.7;20.8;20.8;18;17.8;19.5;0;0;0;0;0;-0.001;0.0065;0;0.4984;0;6883;6907;181.8;0;56;-0.035;-0.034;35285571;0.0065;0;0.4984;0;0.543;205.208;0;0;0;48.282;48.45;1;-1;0;0;0;0;0;0;0;0;0;-1;0.00000000;0.00000000;0.00000000;0.00000000;0.00000000;0.00000000;0.00000000;
35285639;76.7;20.8;20.8;18;17.8;19.4;0;0;0;0;0;-0.001;0.0065;0;0.4984;0;6883;6907;181.8;0;56;-0.032;-0.037;35285594;0.0065;0;0.4984;0;0.543;205.207;0;0;0;48.282;48.45;1;-1;0;0;0;0;0;0;0;0;0;-1;0.00000000;0.00000000;0.00000000;0.00000000;0.00000000;0.00000000;0.00000000;
35285717;76.7;20.8;20.8;18.1;17.8;19.6;0;0;0;0;0;-0.001;0.0065;0;0.4984;0;6883;6907;181.8;0;56;-0.034;-0.035;35285640;0.0065;0;0.4984;0;0.543;205.208;0;0;0;48.282;48.45;1;-1;0;0;0;0;0;0;0;0;0;-1;0.00000000;0.00000000;0.00000000;0.00000000;0.00000000;0.00000000;0.00000000;
35285729;76.7;20.8;20.8;18.1;17.9;19.6;0;0;0;0;0;-0.001;0.0065;0;0.4984;0;6883;6907;181.8;0;56;-0.038;-0.027;35285717;0.0065;0;0.4984;0;0.543;205.206;0;0;0;48.282;48.45;1;-1;0;0;0;0;0;0;0;0;0;-1;0.00000000;0.00000000;0.00000000;0.00000000;0.00000000;0.00000000;0.00000000;
35285759;76.7;20.8;20.8;18;17.8;19.6;0;0;0;0;0;-0.001;0.0065;0;0.4984;0;6883;6907;181.8;0;56;-0.036;-0.031;35285729;0.0065;0;0.4984;0;0.543;205.207;0;0;0;48.282;48.45;1;-1;0;0;0;0;0;0;0;0;0;-1;0.00000000;0.00000000;0.00000000;0.00000000;0.00000000;0.00000000;0.00000000;
35285790;76.7;20.8;20.8;18.1;17.9;19.6;0;0;0;0;0;-0.001;0.0065;0;0.4984;0;6883;6907;181.8;0;56;-0.03;-0.042;35285763;0.0065;0;0.4984;0;0.543;205.206;0;0;0;48.282;48.45;1;-1;0;0;0;0;0;0;0;0;0;-1;0.00000000;0.00000000;0.00000000;0.00000000;0.00000000;0.00000000;0.00000000;
35285820;76.7;20.8;20.8;18.1;17.8;19.5;0;0;0;0;0;-0.001;0.0065;0;0.4984;0;6883;6907;181.8;0;56;-0.032;-0.04;35285791;0.0065;0;0.4984;0;0.543;205.205;0;0;0;48.282;48.45;1;-1;0;0;0;0;0;0;0;0;0;-1;0.00000000;0.00000000;0.00000000;0.00000000;0.00000000;0.00000000;0.00000000;
35285876;76.7;20.8;20.8;18.1;17.9;19.5;0;0;0;0;0;-0.001;0.0065;0;0.4984;0;6883;6907;181.8;0;56;-0.036;-0.032;35285821;0.0065;0;0.4984;0;0.543;205.205;0;0;0;48.282;48.45;1;-1;0;0;0;0;0;0;0;0;0;-1;0.00000000;0.00000000;0.00000000;0.00000000;0.00000000;0.00000000;0.00000000;
35285885;76.7;20.8;20.8;18.1;17.9;19.5;0;0;0;0;0;-0.001;0.0065;0;0.4984;0;6883;6907;181.8;0;56;-0.035;-0.034;35285876;0.0065;0;0.4984;0;0.543;205.206;0;0;0;48.282;48.45;1;-1;0;0;0;0;0;0;0;0;0;-1;0.00000000;0.00000000;0.00000000;0.00000000;0.00000000;0.00000000;0.00000000;
35285914;76.7;20.8;20.8;18;17.8;19.5;0;0;0;0;0;-0.001;0.0065;0;0.4984;0;6883;6907;181.8;0;56;-0.03;-0.043;35285885;0.0065;0;0.4984;0;0.543;205.206;0;0;0;48.282;48.45;1;-1;0;0;0;0;0;0;0;0;0;-1;0.00000000;0.00000000;0.00000000;0.00000000;0.00000000;0.00000000;0.00000000;
35285947;76.7;20.8;20.8;18;17.8;19.5;0;0;0;0;0;-0.001;0.0065;0;0.4984;0;6883;6907;181.8;0;56;-0.028;-0.046;35285915;0.0065;0;0.4984;0;0.543;205.207;0;0;0;48.282;48.45;1;-1;0;0;0;0;0;0;0;0;0;-1;0.00000000;0.00000000;0.00000000;0.00000000;0.00000000;0.00000000;0.00000000;
35285980;76.7;20.8;20.8;18.1;17.9;19.5;0;0;0;0;0;-0.001;0.0065;0;0.4984;0;6883;6907;181.8;0;56;-0.035;-0.034;35285948;0.0065;0;0.4984;0;0.543;205.205;0;0;0;48.282;48.45;1;-1;0;0;0;0;0;0;0;0;0;-1;0.00000000;0.00000000;0.00000000;0.00000000;0.00000000;0.00000000;0.00000000;
35286010;76.7;20.8;20.8;18;17.9;19.5;0;0;0;0;0;-0.001;0.0065;0;0.4984;0;6883;6907;181.8;0;56;-0.03;-0.043;35285981;0.0065;0;0.4984;0;0.543;205.207;0;0;0;48.282;48.45;1;-1;0;0;0;0;0;0;0;0;0;-1;0.00000000;0.00000000;0.00000000;0.00000000;0.00000000;0.00000000;0.00000000;
35286039;76.7;20.8;20.8;18;17.8;19.5;0;0;0;0;0;-0.001;0.0065;0;0.4984;0;6883;6907;181.8;0;56;-0.04;-0.025;35286010;0.0065;0;0.4984;0;0.543;205.208;0;0;0;48.282;48.45;1;-1;0;0;0;0;0;0;0;0;0;-1;0.00000000;0.00000000;0.00000000;0.00000000;0.00000000;0.00000000;0.00000000;
35286086;76.7;20.8;20.8;18;17.7;19.5;0;0;0;0;0;-0.001;0.0065;0;0.4984;0;6883;6907;181.8;0;56;-0.033;-0.037;35286040;0.0065;0;0.4984;0;0.543;205.211;0;0;0;48.282;48.45;1;-1;0;0;0;0;0;0;0;0;0;-1;0.00000000;0.00000000;0.00000000;0.00000000;0.00000000;0.00000000;0.00000000;
35286101;76.7;20.8;20.8;18.1;17.9;19.5;0;0;0;0;0;0.001;0.0065;0;0.4984;0;6883;6907;181.8;0;56;-0.047;-0.014;35286087;0.0065;0;0.4984;0;0.543;205.211;0;0;0;48.282;48.45;1;-1;0;0;0;0;0;0;0;0;0;-1;0.00000000;0.00000000;0.00000000;0.00000000;0.00000000;0.00000000;0.00000000;
35286138;76.7;20.8;20.8;18;17.8;19.5;0;0;0;0;0;-0.001;0.0065;0;0.4984;0;6883;6907;181.8;0;56;-0.036;-0.033;35286102;0.0065;0;0.4984;0;0.543;205.21;0;0;0;48.282;48.45;1;-1;0;0;0;0;0;0;0;0;0;-1;0.00000000;0.00000000;0.00000000;0.00000000;0.00000000;0.00000000;0.00000000;
35286168;76.7;20.8;20.8;18;17.8;19.5;0;0;0;0;0;-0.001;0.0065;0;0.4984;0;6883;6907;181.8;0;56;-0.039;-0.028;35286139;0.0065;0;0.4984;0;0.543;205.208;0;0;0;48.282;48.45;1;-1;0;0;0;0;0;0;0;0;0;-1;0.00000000;0.00000000;0.00000000;0.00000000;0.00000000;0.00000000;0.00000000;
35286197;76.7;20.8;20.8;18;17.8;19.4;0;0;0;0;0;-0.001;0.0065;0;0.4984;0;6883;6907;181.8;0;56;-0.032;-0.038;35286169;0.0065;0;0.4984;0;0.543;205.208;0;0;0;48.282;48.45;1;-1;0;0;0;0;0;0;0;0;0;-1;0.00000000;0.00000000;0.00000000;0.00000000;0.00000000;0.00000000;0.00000000;
35286232;76.7;20.8;20.8;18;17.8;19.4;0;0;0;0;0;-0.001;0.0065;0;0.4984;0;6883;6907;181.8;0;56;-0.037;-0.032;35286199;0.0065;0;0.4984;0;0.543;205.209;0;0;0;48.282;48.45;1;-1;0;0;0;0;0;0;0;0;0;-1;0.00000000;0.00000000;0.00000000;0.00000000;0.00000000;0.00000000;0.00000000;
35286261;76.7;20.8;20.8;18.1;17.9;19.4;0;0;0;0;0;-0.001;0.0065;0;0.4984;0;6883;6907;181.8;0;56;-0.035;-0.037;35286233;0.0065;0;0.4984;0;0.543;205.208;0;0;0;48.282;48.45;1;-1;0;0;0;0;0;0;0;0;0;-1;0.00000000;0.00000000;0.00000000;0.00000000;0.00000000;0.00000000;0.00000000;
35286297;76.7;20.8;20.7;18;17.8;19.4;0;0;0;0;0;-0.001;0.0065;0;0.4984;0;6883;6907;181.8;0;56;-0.036;-0.032;35286262;0.0065;0;0.4984;0;0.543;205.208;0;0;0;48.282;48.45;1;-1;0;0;0;0;0;0;0;0;0;-1;0.00000000;0.00000000;0.00000000;0.00000000;0.00000000;0.00000000;0.00000000;
35286327;76.7;20.8;20.9;18.1;17.9;19.4;0;0;0;0;0;-0.001;0.0065;0;0.4984;0;6883;6907;181.8;0;56;-0.035;-0.036;35286297;0.0065;0;0.4984;0;0.543;205.206;0;0;0;48.282;48.45;1;-1;0;0;0;0;0;0;0;0;0;-1;0.00000000;0.00000000;0.00000000;0.00000000;0.00000000;0.00000000;0.00000000;
35286362;76.7;20.8;20.9;18.1;17.9;19.5;0;0;0;0;0;-0.001;0.0065;0;0.4984;0;6883;6907;181.8;0;56;-0.037;-0.03;35286328;0.0065;0;0.4984;0;0.543;205.207;0;0;0;48.282;48.45;1;-1;0;0;0;0;0;0;0;0;0;-1;0.00000000;0.00000000;0.00000000;0.00000000;0.00000000;0.00000000;0.00000000;
35286396;76.8;20.8;20.8;18.1;17.9;19.5;0;0;0;0;0;-0.001;0.0065;0;0.4984;0;6883;6907;181.8;0;56;-0.035;-0.035;35286362;0.0065;0;0.4984;0;0.543;205.204;0;0;0;48.282;48.45;1;-1;0;0;0;0;0;0;0;0;0;-1;0.00000000;0.00000000;0.00000000;0.00000000;0.00000000;0.00000000;0.00000000;
35286456;76.7;20.8;20.8;18;17.8;19.4;0;0;0;0;0;-0.001;0.0065;0;0.4984;0;6883;6907;181.8;0;56;-0.033;-0.039;35286396;0.0065;0;0.4984;0;0.543;205.203;0;0;0;48.282;48.45;1;-1;0;0;0;0;0;0;0;0;0;-1;0.00000000;0.00000000;0.00000000;0.00000000;0.00000000;0.00000000;0.00000000;
35286477;76.7;20.8;20.8;18.1;17.9;19.4;0;0;0;0;0;0;0.0065;0;0.4984;0;6883;6907;181.8;0;56;-0.033;-0.037;35286457;0.0065;0;0.4984;0;0.543;205.204;0;0;0;48.282;48.45;1;-1;0;0;0;0;0;0;0;0;0;-1;0.00000000;0.00000000;0.00000000;0.00000000;0.00000000;0.00000000;0.00000000;
35286510;76.8;20.8;20.8;18.1;17.9;19.4;0;0;0;0;0;-0.001;0.0065;0;0.4984;0;6883;6907;181.8;0;56;-0.034;-0.036;35286478;0.0065;0;0.4984;0;0.543;205.204;0;0;0;48.282;48.45;1;-1;0;0;0;0;0;0;0;0;0;-1;0.00000000;0.00000000;0.00000000;0.00000000;0.00000000;0.00000000;0.00000000;
35286533;76.7;20.8;20.8;18.1;17.9;19.4;0;0;0;0;0;-0.001;0.0065;0;0.4984;0;6883;6907;181.8;0;56;-0.033;-0.038;35286511;0.0065;0;0.4984;0;0.543;205.203;0;0;0;48.282;48.45;1;-1;0;0;0;0;0;0;0;0;0;-1;0.00000000;0.00000000;0.00000000;0.00000000;0.00000000;0.00000000;0.00000000;
35286569;76.7;20.8;20.8;18.1;17.9;19.4;0;0;0;0;0;0.001;0.0065;0;0.4984;0;6883;6907;181.8;0;56;-0.032;-0.04;35286533;0.0065;0;0.4984;0;0.543;205.205;0;0;0;48.282;48.45;1;-1;0;0;0;0;0;0;0;0;0;-1;0.00000000;0.00000000;0.00000000;0.00000000;0.00000000;0.00000000;0.00000000;
35286601;76.7;20.8;20.8;18;17.9;19.4;0;0;0;0;0;-0.001;0.0065;0;0.4984;0;6883;6907;181.8;0;56;-0.033;-0.038;35286569;0.0065;0;0.4984;0;0.543;205.206;0;0;0;48.282;48.45;1;-1;0;0;0;0;0;0;0;0;0;-1;0.00000000;0.00000000;0.00000000;0.00000000;0.00000000;0.00000000;0.00000000;
35286654;76.8;20.8;20.8;18;17.8;19.4;0;0;0;0;0;-0.001;0.0065;0;0.4984;0;6883;6907;181.8;0;56;-0.033;-0.037;35286602;0.0065;0;0.4984;0;0.543;205.207;0;0;0;48.282;48.45;1;-1;0;0;0;0;0;0;0;0;0;-1;0.00000000;0.00000000;0.00000000;0.00000000;0.00000000;0.00000000;0.00000000;
35286664;76.7;20.8;20.8;18.1;17.9;19.3;0;0;0;0;0;-0.001;0.0065;0;0.4984;0;6883;6907;181.8;0;56;-0.033;-0.038;35286654;0.0065;0;0.4984;0;0.543;205.209;0;0;0;48.282;48.45;1;-1;0;0;0;0;0;0;0;0;0;-1;0.00000000;0.00000000;0.00000000;0.00000000;0.00000000;0.00000000;0.00000000;
35286696;76.7;20.8;20.8;18.1;17.9;19.3;0;0;0;0;0;-0.001;0.0065;0;0.4984;0;6883;6907;181.8;0;56;-0.036;-0.033;35286664;0.0065;0;0.4984;0;0.543;205.21;0;0;0;48.282;48.45;1;-1;0;0;0;0;0;0;0;0;0;-1;0.00000000;0.00000000;0.00000000;0.00000000;0.00000000;0.00000000;0.00000000;
35286728;76.7;20.8;20.8;18;17.8;19.3;0;0;0;0;0;-0.001;0.0065;0;0.4984;0;6883;6907;181.8;0;56;-0.034;-0.036;35286697;0.0065;0;0.4984;0;0.543;205.209;0;0;0;48.282;48.45;1;-1;0;0;0;0;0;0;0;0;0;-1;0.00000000;0.00000000;0.00000000;0.00000000;0.00000000;0.00000000;0.00000000;
35286758;76.8;20.8;20.8;18;17.8;19.3;0;0;0;0;0;-0.001;0.0065;0;0.4984;0;6883;6907;181.8;0;56;-0.035;-0.035;35286728;0.0065;0;0.4984;0;0.543;205.209;0;0;0;48.282;48.45;1;-1;0;0;0;0;0;0;0;0;0;-1;0.00000000;0.00000000;0.00000000;0.00000000;0.00000000;0.00000000;0.00000000;
35286789;76.7;20.8;20.8;18;17.8;19.4;0;0;0;0;0;-0.001;0.0065;0;0.4984;0;6883;6907;181.8;0;56;-0.031;-0.04;35286758;0.0065;0;0.4984;0;0.543;205.21;0;0;0;48.282;48.45;1;-1;0;0;0;0;0;0;0;0;0;-1;0.00000000;0.00000000;0.00000000;0.00000000;0.00000000;0.00000000;0.00000000;
35286850;76.7;20.8;20.7;18;17.8;19.4;0;0;0;0;0;-0.001;0.0065;0;0.4984;0;6883;6907;181.8;0;56;-0.031;-0.041;35286791;0.0065;0;0.4984;0;0.543;205.211;0;0;0;48.282;48.45;1;-1;0;0;0;0;0;0;0;0;0;-1;0.00000000;0.00000000;0.00000000;0.00000000;0.00000000;0.00000000;0.00000000;
35286862;76.7;20.8;20.8;18;17.8;19.4;0;0;0;0;0;-0.002;0.0065;0;0.4984;0;6883;6907;181.8;0;56;-0.038;-0.03;35286851;0.0065;0;0.4984;0;0.543;205.211;0;0;0;48.282;48.45;1;-1;0;0;0;0;0;0;0;0;0;-1;0.00000000;0.00000000;0.00000000;0.00000000;0.00000000;0.00000000;0.00000000;
35286892;76.7;20.8;20.8;18.1;17.9;19.4;0;0;0;0;0;-0.001;0.0065;0;0.4984;0;6883;6907;181.8;0;56;-0.031;-0.04;35286873;0.0065;0;0.4984;0;0.543;205.211;0;0;0;48.282;48.45;1;-1;0;0;0;0;0;0;0;0;0;-1;0.00000000;0.00000000;0.00000000;0.00000000;0.00000000;0.00000000;0.00000000;
35286930;76.8;20.8;20.8;18;17.8;19.4;0;0;0;0;0;-0.001;0.0065;0;0.4984;0;6883;6907;181.8;0;56;-0.036;-0.033;35286892;0.0065;0;0.4984;0;0.543;205.209;0;0;0;48.282;48.45;1;-1;0;0;0;0;0;0;0;0;0;-1;0.00000000;0.00000000;0.00000000;0.00000000;0.00000000;0.00000000;0.00000000;
35286976;76.8;20.8;20.8;18.1;17.9;19.4;0;0;0;0;0;0.001;0.0065;0;0.4984;0;6883;6907;181.8;0;56;-0.029;-0.044;35286931;0.0065;0;0.4984;0;0.543;205.21;0;0;0;48.282;48.45;1;-1;0;0;0;0;0;0;0;0;0;-1;0.00000000;0.00000000;0.00000000;0.00000000;0.00000000;0.00000000;0.00000000;
35287008;76.7;20.8;20.8;18.1;17.9;19.4;0;0;0;0;0;-0.001;0.0065;0;0.4984;0;6883;6907;181.8;0;56;-0.031;-0.041;35286977;0.0065;0;0.4984;0;0.543;205.211;0;0;0;48.282;48.45;1;-1;0;0;0;0;0;0;0;0;0;-1;0.00000000;0.00000000;0.00000000;0.00000000;0.00000000;0.00000000;0.00000000;
35287060;76.7;20.8;20.8;18;17.8;19.4;0;0;0;0;0;-0.001;0.0065;0;0.4984;0;6883;6907;181.8;0;56;-0.033;-0.037;35287008;0.0065;0;0.4984;0;0.543;205.21;0;0;0;48.282;48.45;1;-1;0;0;0;0;0;0;0;0;0;-1;0.00000000;0.00000000;0.00000000;0.00000000;0.00000000;0.00000000;0.00000000;
35287072;76.8;20.8;20.8;18;17.8;19.4;0;0;0;0;0;-0.001;0.0065;0;0.4984;0;6883;6907;181.8;0;56;-0.031;-0.041;35287062;0.0065;0;0.4984;0;0.543;205.213;0;0;0;48.282;48.45;1;-1;0;0;0;0;0;0;0;0;0;-1;0.00000000;0.00000000;0.00000000;0.00000000;0.00000000;0.00000000;0.00000000;
35287102;76.7;20.8;20.8;18;17.8;19.4;0;0;0;0;0;0.001;0.0065;0;0.4984;0;6883;6907;181.8;0;56;-0.036;-0.032;35287072;0.0065;0;0.4984;0;0.543;205.213;0;0;0;48.282;48.45;1;-1;0;0;0;0;0;0;0;0;0;-1;0.00000000;0.00000000;0.00000000;0.00000000;0.00000000;0.00000000;0.00000000;
35287134;76.7;20.8;20.8;18;17.8;19.4;0;0;0;0;0;-0.001;0.0065;0;0.4984;0;6883;6907;181.8;0;56;-0.038;-0.03;35287102;0.0065;0;0.4984;0;0.543;205.214;0;0;0;48.282;48.45;1;-1;0;0;0;0;0;0;0;0;0;-1;0.00000000;0.00000000;0.00000000;0.00000000;0.00000000;0.00000000;0.00000000;
35287169;76.8;20.8;20.8;18.1;17.9;19.4;0;0;0;0;0;-0.001;0.0065;0;0.4984;0;6883;6907;181.8;0;56;-0.034;-0.038;35287142;0.0065;0;0.4984;0;0.543;205.213;0;0;0;48.282;48.45;1;-1;0;0;0;0;0;0;0;0;0;-1;0.00000000;0.00000000;0.00000000;0.00000000;0.00000000;0.00000000;0.00000000;
35287198;76.7;20.8;20.7;18;17.8;19.5;0;0;0;0;0;0.001;0.0065;0;0.4984;0;6883;6907;181.8;0;56;-0.039;-0.028;35287170;0.0065;0;0.4984;0;0.543;205.214;0;0;0;48.282;48.45;1;-1;0;0;0;0;0;0;0;0;0;-1;0.00000000;0.00000000;0.00000000;0.00000000;0.00000000;0.00000000;0.00000000;
35287257;76.7;20.8;20.9;18;17.8;19.4;0;0;0;0;0;0.001;0.0065;0;0.4984;0;6883;6907;181.8;0;56;-0.032;-0.038;35287198;0.0065;0;0.4984;0;0.543;205.214;0;0;0;48.282;48.45;1;-1;0;0;0;0;0;0;0;0;0;-1;0.00000000;0.00000000;0.00000000;0.00000000;0.00000000;0.00000000;0.00000000;
35287288;76.7;20.8;20.8;18.1;17.9;19.4;0;0;0;0;0;-0.001;0.0065;0;0.4984;0;6883;6907;181.8;0;56;-0.035;-0.033;35287257;0.0065;0;0.4984;0;0.543;205.217;0;0;0;48.282;48.45;1;-1;0;0;0;0;0;0;0;0;0;-1;0.00000000;0.00000000;0.00000000;0.00000000;0.00000000;0.00000000;0.00000000;
35287323;76.8;20.8;20.8;18;17.8;19.4;0;0;0;0;0;0.001;0.0065;0;0.4984;0;6883;6907;181.8;0;56;-0.035;-0.034;35287288;0.0065;0;0.4984;0;0.543;205.217;0;0;0;48.282;48.45;1;-1;0;0;0;0;0;0;0;0;0;-1;0.00000000;0.00000000;0.00000000;0.00000000;0.00000000;0.00000000;0.00000000;
35287343;76.7;20.8;20.9;18;17.8;19.4;0;0;0;0;0;0;0.0065;0;0.4984;0;6883;6907;181.8;0;56;-0.035;-0.035;35287323;0.0065;0;0.4984;0;0.543;205.217;0;0;0;48.282;48.45;1;-1;0;0;0;0;0;0;0;0;0;-1;0.00000000;0.00000000;0.00000000;0.00000000;0.00000000;0.00000000;0.00000000;
35287388;76.7;20.8;20.8;18;17.8;19.5;0;0;0;0;0;-0.001;0.0065;0;0.4984;0;6883;6907;181.8;0;56;-0.037;-0.03;35287343;0.0065;0;0.4984;0;0.543;205.218;0;0;0;48.282;48.45;1;-1;0;0;0;0;0;0;0;0;0;-1;0.00000000;0.00000000;0.00000000;0.00000000;0.00000000;0.00000000;0.00000000;
35287407;76.7;20.8;20.8;18;17.8;19.5;0;0;0;0;0;0.001;0.0065;0;0.4984;0;6883;6907;181.8;0;56;-0.036;-0.033;35287389;0.0065;0;0.4984;0;0.543;205.216;0;0;0;48.282;48.45;1;-1;0;0;0;0;0;0;0;0;0;-1;0.00000000;0.00000000;0.00000000;0.00000000;0.00000000;0.00000000;0.00000000;
35287449;76.7;20.8;20.8;18.1;17.8;19.4;0;0;0;0;0;-0.001;0.0065;0;0.4984;0;6883;6907;181.8;0;56;-0.036;-0.032;35287407;0.0065;0;0.4984;0;0.543;205.216;0;0;0;48.282;48.45;1;-1;0;0;0;0;0;0;0;0;0;-1;0.00000000;0.00000000;0.00000000;0.00000000;0.00000000;0.00000000;0.00000000;
35287470;76.7;20.8;20.8;18;17.8;19.3;0;0;0;0;0;-0.001;0.0065;0;0.4984;0;6883;6907;181.8;0;56;-0.036;-0.031;35287450;0.0065;0;0.4984;0;0.543;205.216;0;0;0;48.282;48.45;1;-1;0;0;0;0;0;0;0;0;0;-1;0.00000000;0.00000000;0.00000000;0.00000000;0.00000000;0.00000000;0.00000000;
35287509;76.7;20.8;20.8;18;17.8;19.4;0;0;0;0;0;-0.001;0.0065;0;0.4984;0;6883;6907;181.8;0;56;-0.035;-0.035;35287470;0.0065;0;0.4984;0;0.543;205.217;0;0;0;48.282;48.45;1;-1;0;0;0;0;0;0;0;0;0;-1;0.00000000;0.00000000;0.00000000;0.00000000;0.00000000;0.00000000;0.00000000;
35287539;76.8;20.8;20.8;18;17.8;19.4;0;0;0;0;0;-0.001;0.0065;0;0.4984;0;6883;6907;181.8;0;56;-0.032;-0.039;35287509;0.0065;0;0.4984;0;0.543;205.217;0;0;0;48.282;48.45;1;-1;0;0;0;0;0;0;0;0;0;-1;0.00000000;0.00000000;0.00000000;0.00000000;0.00000000;0.00000000;0.00000000;
35287572;76.8;20.8;20.8;18;17.8;19.4;0;0;0;0;0;-0.001;0.0065;0;0.4984;0;6883;6907;181.8;0;56;-0.032;-0.039;35287540;0.0065;0;0.4984;0;0.543;205.215;0;0;0;48.282;48.45;1;-1;0;0;0;0;0;0;0;0;0;-1;0.00000000;0.00000000;0.00000000;0.00000000;0.00000000;0.00000000;0.00000000;
35287622;76.7;20.8;20.9;18.1;17.9;19.5;0;0;0;0;0;-0.001;0.0065;0;0.4984;0;6883;6907;181.8;0;56;-0.036;-0.033;35287572;0.0065;0;0.4984;0;0.543;205.214;0;0;0;48.282;48.45;1;-1;0;0;0;0;0;0;0;0;0;-1;0.00000000;0.00000000;0.00000000;0.00000000;0.00000000;0.00000000;0.00000000;
35287634;76.7;20.8;20.8;18.1;17.8;19.5;0;0;0;0;0;-0.001;0.0065;0;0.4984;0;6883;6907;181.8;0;56;-0.034;-0.036;35287623;0.0065;0;0.4984;0;0.543;205.214;0;0;0;48.282;48.45;1;-1;0;0;0;0;0;0;0;0;0;-1;0.00000000;0.00000000;0.00000000;0.00000000;0.00000000;0.00000000;0.00000000;
35287665;76.7;20.8;20.8;18;17.8;19.4;0;0;0;0;0;-0.001;0.0065;0;0.4984;0;6883;6907;181.8;0;56;-0.033;-0.038;35287634;0.0065;0;0.4984;0;0.543;205.213;0;0;0;48.282;48.45;1;-1;0;0;0;0;0;0;0;0;0;-1;0.00000000;0.00000000;0.00000000;0.00000000;0.00000000;0.00000000;0.00000000;
35287695;76.7;20.8;20.8;18.1;17.9;19.3;0;0;0;0;0;-0.001;0.0065;0;0.4984;0;6883;6907;181.8;0;56;-0.042;-0.022;35287665;0.0065;0;0.4984;0;0.543;205.214;0;0;0;48.282;48.45;1;-1;0;0;0;0;0;0;0;0;0;-1;0.00000000;0.00000000;0.00000000;0.00000000;0.00000000;0.00000000;0.00000000;
35287730;76.8;20.8;20.8;18;17.8;19.3;0;0;0;0;0;-0.001;0.0065;0;0.4984;0;6883;6907;181.8;0;56;-0.033;-0.037;35287695;0.0065;0;0.4984;0;0.543;205.213;0;0;0;48.282;48.45;1;-1;0;0;0;0;0;0;0;0;0;-1;0.00000000;0.00000000;0.00000000;0.00000000;0.00000000;0.00000000;0.00000000;
35287761;76.7;20.8;20.8;18;17.8;19.4;0;0;0;0;0;-0.001;0.0065;0;0.4984;0;6883;6907;181.8;0;56;-0.035;-0.034;35287730;0.0065;0;0.4984;0;0.543;205.212;0;0;0;48.282;48.45;1;-1;0;0;0;0;0;0;0;0;0;-1;0.00000000;0.00000000;0.00000000;0.00000000;0.00000000;0.00000000;0.00000000;
35287823;76.8;20.8;20.8;18.1;17.9;19.4;0;0;0;0;0;-0.001;0.0065;0;0.4984;0;6883;6907;181.8;0;56;-0.04;-0.025;35287762;0.0065;0;0.4984;0;0.543;205.212;0;0;0;48.282;48.45;1;-1;0;0;0;0;0;0;0;0;0;-1;0.00000000;0.00000000;0.00000000;0.00000000;0.00000000;0.00000000;0.00000000;
35287925;76.7;20.8;20.8;18;17.8;19.4;0;0;0;0;0;-0.001;0.0065;0;0.4984;0;6883;6907;181.8;0;56;-0.031;-0.042;35287823;0.0065;0;0.4984;0;0.543;205.215;0;0;0;48.282;48.45;1;-1;0;0;0;0;0;0;0;0;0;-1;0.00000000;0.00000000;0.00000000;0.00000000;0.00000000;0.00000000;0.00000000;
35287951;76.7;20.8;20.8;18.1;17.9;19.4;0;0;0;0;0;-0.001;0.0065;0;0.4984;0;6883;6907;181.8;0;56;-0.035;-0.034;35287925;0.0065;0;0.4984;0;0.543;205.217;0;0;0;48.282;48.45;1;-1;0;0;0;0;0;0;0;0;0;-1;0.00000000;0.00000000;0.00000000;0.00000000;0.00000000;0.00000000;0.00000000;
35287981;76.7;20.8;20.8;18.1;17.9;19.4;0;0;0;0;0;-0.001;0.0065;0;0.4984;0;6883;6907;181.8;0;56;-0.035;-0.035;35287953;0.0065;0;0.4984;0;0.543;205.216;0;0;0;48.282;48.45;1;-1;0;0;0;0;0;0;0;0;0;-1;0.00000000;0.00000000;0.00000000;0.00000000;0.00000000;0.00000000;0.00000000;
35288036;76.7;20.8;20.8;18;17.8;19.5;0;0;0;0;0;-0.001;0.0065;0;0.4984;0;6883;6907;181.8;0;56;-0.032;-0.04;35287981;0.0065;0;0.4984;0;0.543;205.216;0;0;0;48.282;48.45;1;-1;0;0;0;0;0;0;0;0;0;-1;0.00000000;0.00000000;0.00000000;0.00000000;0.00000000;0.00000000;0.00000000;
35288071;76.8;20.8;20.8;18;17.8;19.5;0;0;0;0;0;-0.001;0.0065;0;0.4984;0;6883;6907;181.8;0;56;-0.027;-0.046;35288037;0.0065;0;0.4984;0;0.543;205.216;0;0;0;48.282;48.45;1;-1;0;0;0;0;0;0;0;0;0;-1;0.00000000;0.00000000;0.00000000;0.00000000;0.00000000;0.00000000;0.00000000;
35288110;76.8;20.8;20.9;18;17.8;19.4;0;0;0;0;0;-0.001;0.0065;0;0.4984;0;6883;6907;181.8;0;56;-0.036;-0.032;35288071;0.0065;0;0.4984;0;0.543;205.216;0;0;0;48.282;48.45;1;-1;0;0;0;0;0;0;0;0;0;-1;0.00000000;0.00000000;0.00000000;0.00000000;0.00000000;0.00000000;0.00000000;
35288145;76.7;20.8;20.9;18;17.8;19.4;0;0;0;0;0;-0.001;0.0065;0;0.4984;0;6883;6907;181.8;0;56;-0.034;-0.035;35288111;0.0065;0;0.4984;0;0.543;205.218;0;0;0;48.282;48.45;1;-1;0;0;0;0;0;0;0;0;0;-1;0.00000000;0.00000000;0.00000000;0.00000000;0.00000000;0.00000000;0.00000000;
35288181;76.7;20.8;20.8;18.1;17.8;19.4;0;0;0;0;0;-0.001;0.0065;0;0.4984;0;6883;6907;181.8;0;56;-0.034;-0.035;35288145;0.0065;0;0.4984;0;0.543;205.219;0;0;0;48.282;48.45;1;-1;0;0;0;0;0;0;0;0;0;-1;0.00000000;0.00000000;0.00000000;0.00000000;0.00000000;0.00000000;0.00000000;
35288236;76.7;20.8;20.7;18;17.8;19.5;0;0;0;0;0;0.001;0.0065;0;0.4984;0;6883;6907;181.8;0;56;-0.028;-0.046;35288181;0.0065;0;0.4984;0;0.543;205.22;0;0;0;48.282;48.45;1;-1;0;0;0;0;0;0;0;0;0;-1;0.00000000;0.00000000;0.00000000;0.00000000;0.00000000;0.00000000;0.00000000;
35288255;76.7;20.8;20.8;18.1;17.9;19.5;0;0;0;0;0;-0.001;0.0065;0;0.4984;0;6883;6907;181.8;0;56;-0.03;-0.043;35288236;0.0065;0;0.4984;0;0.543;205.218;0;0;0;48.282;48.45;1;-1;0;0;0;0;0;0;0;0;0;-1;0.00000000;0.00000000;0.00000000;0.00000000;0.00000000;0.00000000;0.00000000;
35288290;76.7;20.8;20.8;18.1;17.9;19.5;0;0;0;0;0;-0.001;0.0065;0;0.4984;0;6883;6907;181.8;0;56;-0.037;-0.029;35288256;0.0065;0;0.4984;0;0.543;205.216;0;0;0;48.282;48.45;1;-1;0;0;0;0;0;0;0;0;0;-1;0.00000000;0.00000000;0.00000000;0.00000000;0.00000000;0.00000000;0.00000000;
35288321;76.7;20.8;20.8;18.1;18;19.4;0;0;0;0;0;-0.001;0.0065;0;0.4984;0;6883;6907;181.8;0;56;-0.036;-0.033;35288290;0.0065;0;0.4984;0;0.543;205.217;0;0;0;48.282;48.45;1;-1;0;0;0;0;0;0;0;0;0;-1;0.00000000;0.00000000;0.00000000;0.00000000;0.00000000;0.00000000;0.00000000;
35288353;76.7;20.8;20.8;18;17.8;19.4;0;0;0;0;0;-0.001;0.0065;0;0.4984;0;6883;6907;181.8;0;56;-0.031;-0.042;35288321;0.0065;0;0.4984;0;0.543;205.217;0;0;0;48.282;48.45;1;-1;0;0;0;0;0;0;0;0;0;-1;0.00000000;0.00000000;0.00000000;0.00000000;0.00000000;0.00000000;0.00000000;
35288386;76.7;20.8;20.8;18;17.9;19.4;0;0;0;0;0;0.001;0.0065;0;0.4984;0;6883;6907;181.8;0;56;-0.039;-0.026;35288353;0.0065;0;0.4984;0;0.543;205.216;0;0;0;48.282;48.45;1;-1;0;0;0;0;0;0;0;0;0;-1;0.00000000;0.00000000;0.00000000;0.00000000;0.00000000;0.00000000;0.00000000;
35288438;76.7;20.8;20.8;18;17.8;19.4;0;0;0;0;0;-0.001;0.0065;0;0.4984;0;6883;6907;181.8;0;56;-0.032;-0.039;35288387;0.0065;0;0.4984;0;0.543;205.218;0;0;0;48.282;48.45;1;-1;0;0;0;0;0;0;0;0;0;-1;0.00000000;0.00000000;0.00000000;0.00000000;0.00000000;0.00000000;0.00000000;
35288449;76.7;20.8;20.8;18.1;17.8;19.4;0;0;0;0;0;-0.001;0.0065;0;0.4984;0;6883;6907;181.8;0;56;-0.035;-0.035;35288439;0.0065;0;0.4984;0;0.543;205.215;0;0;0;48.282;48.45;1;-1;0;0;0;0;0;0;0;0;0;-1;0.00000000;0.00000000;0.00000000;0.00000000;0.00000000;0.00000000;0.00000000;
35288479;76.7;20.8;20.7;18;17.8;19.4;0;0;0;0;0;-0.001;0.0065;0;0.4984;0;6883;6907;181.8;0;56;-0.035;-0.035;35288449;0.0065;0;0.4984;0;0.543;205.216;0;0;0;48.282;48.45;1;-1;0;0;0;0;0;0;0;0;0;-1;0.00000000;0.00000000;0.00000000;0.00000000;0.00000000;0.00000000;0.00000000;
35288512;76.7;20.8;20.8;18;17.8;19.5;0;0;0;0;0;0;0.0065;0;0.4984;0;6883;6907;181.8;0;56;-0.037;-0.03;35288480;0.0065;0;0.4984;0;0.543;205.214;0;0;0;48.282;48.45;1;-1;0;0;0;0;0;0;0;0;0;-1;0.00000000;0.00000000;0.00000000;0.00000000;0.00000000;0.00000000;0.00000000;
35288545;76.7;20.8;20.8;18;17.8;19.5;0;0;0;0;0;0.001;0.0065;0;0.4984;0;6883;6907;181.8;0;56;-0.035;-0.035;35288512;0.0065;0;0.4984;0;0.543;205.212;0;0;0;48.282;48.45;1;-1;0;0;0;0;0;0;0;0;0;-1;0.00000000;0.00000000;0.00000000;0.00000000;0.00000000;0.00000000;0.00000000;
35288579;76.7;20.8;20.9;18;17.8;19.5;0;0;0;0;0;-0.001;0.0065;0;0.4984;0;6883;6907;181.8;0;56;-0.032;-0.039;35288546;0.0065;0;0.4984;0;0.543;205.213;0;0;0;48.282;48.45;1;-1;0;0;0;0;0;0;0;0;0;-1;0.00000000;0.00000000;0.00000000;0.00000000;0.00000000;0.00000000;0.00000000;
35288612;76.7;20.8;20.8;18;17.8;19.4;0;0;0;0;0;-0.001;0.0065;0;0.4984;0;6883;6907;181.8;0;56;-0.038;-0.028;35288579;0.0065;0;0.4984;0;0.543;205.211;0;0;0;48.282;48.45;1;-1;0;0;0;0;0;0;0;0;0;-1;0.00000000;0.00000000;0.00000000;0.00000000;0.00000000;0.00000000;0.00000000;
35288646;76.7;20.8;20.8;18;17.8;19.4;0;0;0;0;0;-0.001;0.0065;0;0.4984;0;6883;6907;181.8;0;56;-0.038;-0.029;35288612;0.0065;0;0.4984;0;0.543;205.212;0;0;0;48.282;48.45;1;-1;0;0;0;0;0;0;0;0;0;-1;0.00000000;0.00000000;0.00000000;0.00000000;0.00000000;0.00000000;0.00000000;
35288670;76.7;20.8;20.8;18;17.9;19.5;0;0;0;0;0;-0.001;0.0065;0;0.4984;0;6883;6907;181.8;0;56;-0.033;-0.038;35288646;0.0065;0;0.4984;0;0.543;205.212;0;0;0;48.282;48.45;1;-1;0;0;0;0;0;0;0;0;0;-1;0.00000000;0.00000000;0.00000000;0.00000000;0.00000000;0.00000000;0.00000000;
35288700;76.8;20.8;20.9;18;17.8;19.5;0;0;0;0;0;-0.001;0.0065;0;0.4984;0;6883;6907;181.8;0;56;-0.034;-0.036;35288670;0.0065;0;0.4984;0;0.543;205.211;0;0;0;48.282;48.45;1;-1;0;0;0;0;0;0;0;0;0;-1;0.00000000;0.00000000;0.00000000;0.00000000;0.00000000;0.00000000;0.00000000;
35288732;76.7;20.8;20.8;18.1;17.9;19.5;0;0;0;0;0;-0.001;0.0065;0;0.4984;0;6883;6907;181.8;0;56;-0.032;-0.039;35288700;0.0065;0;0.4984;0;0.543;205.211;0;0;0;48.282;48.45;1;-1;0;0;0;0;0;0;0;0;0;-1;0.00000000;0.00000000;0.00000000;0.00000000;0.00000000;0.00000000;0.00000000;
35288785;76.7;20.8;20.9;18;17.8;19.4;0;0;0;0;0;-0.002;0.0065;0;0.4984;0;6883;6907;181.8;0;56;-0.037;-0.031;35288732;0.0065;0;0.4984;0;0.543;205.21;0;0;0;48.282;48.45;1;-1;0;0;0;0;0;0;0;0;0;-1;0.00000000;0.00000000;0.00000000;0.00000000;0.00000000;0.00000000;0.00000000;
35288822;76.7;20.8;20.8;18.1;17.9;19.4;0;0;0;0;0;-0.001;0.0065;0;0.4984;0;6883;6907;181.8;0;56;-0.032;-0.039;35288785;0.0065;0;0.4984;0;0.543;205.21;0;0;0;48.282;48.45;1;-1;0;0;0;0;0;0;0;0;0;-1;0.00000000;0.00000000;0.00000000;0.00000000;0.00000000;0.00000000;0.00000000;
35288853;76.7;20.8;20.8;18;17.8;19.4;0;0;0;0;0;-0.001;0.0065;0;0.4984;0;6883;6907;181.8;0;56;-0.032;-0.04;35288822;0.0065;0;0.4984;0;0.543;205.209;0;0;0;48.282;48.45;1;-1;0;0;0;0;0;0;0;0;0;-1;0.00000000;0.00000000;0.00000000;0.00000000;0.00000000;0.00000000;0.00000000;
35288886;76.8;20.8;20.8;18;17.8;19.4;0;0;0;0;0;-0.001;0.0065;0;0.4984;0;6883;6907;181.8;0;56;-0.029;-0.045;35288853;0.0065;0;0.4984;0;0.543;205.207;0;0;0;48.282;48.45;1;-1;0;0;0;0;0;0;0;0;0;-1;0.00000000;0.00000000;0.00000000;0.00000000;0.00000000;0.00000000;0.00000000;
35288920;76.8;20.8;20.8;18;17.8;19.4;0;0;0;0;0;-0.001;0.0065;0;0.4984;0;6883;6907;181.8;0;56;-0.034;-0.036;35288886;0.0065;0;0.4984;0;0.543;205.209;0;0;0;48.282;48.45;1;-1;0;0;0;0;0;0;0;0;0;-1;0.00000000;0.00000000;0.00000000;0.00000000;0.00000000;0.00000000;0.00000000;
35288938;76.8;20.9;20.8;18.1;17.9;19.4;0;0;0;0;0;-0.001;0.0065;0;0.4984;0;6883;6907;181.8;0;56;-0.031;-0.041;35288920;0.0065;0;0.4984;0;0.543;205.21;0;0;0;48.282;48.45;1;-1;0;0;0;0;0;0;0;0;0;-1;0.00000000;0.00000000;0.00000000;0.00000000;0.00000000;0.00000000;0.00000000;
35289018;76.8;20.8;20.8;18;17.8;19.4;0;0;0;0;0;-0.001;0.0065;0;0.4984;0;6883;6907;181.8;0;56;-0.036;-0.033;35288938;0.0065;0;0.4984;0;0.543;205.21;0;0;0;48.282;48.45;1;-1;0;0;0;0;0;0;0;0;0;-1;0.00000000;0.00000000;0.00000000;0.00000000;0.00000000;0.00000000;0.00000000;
35289046;76.8;20.8;20.8;18;17.8;19.4;0;0;0;0;0;-0.001;0.0065;0;0.4984;0;6883;6907;181.8;0;56;-0.03;-0.041;35289018;0.0065;0;0.4984;0;0.543;205.211;0;0;0;48.282;48.45;1;-1;0;0;0;0;0;0;0;0;0;-1;0.00000000;0.00000000;0.00000000;0.00000000;0.00000000;0.00000000;0.00000000;
35289075;76.8;20.8;20.9;18.1;17.9;19.4;0;0;0;0;0;-0.001;0.0065;0;0.4984;0;6883;6907;181.8;0;56;-0.033;-0.036;35289046;0.0065;0;0.4984;0;0.543;205.213;0;0;0;48.282;48.45;1;-1;0;0;0;0;0;0;0;0;0;-1;0.00000000;0.00000000;0.00000000;0.00000000;0.00000000;0.00000000;0.00000000;
35289105;76.8;20.8;20.8;18;17.8;19.3;0;0;0;0;0;-0.001;0.0065;0;0.4984;0;6883;6907;181.8;0;56;-0.037;-0.03;35289076;0.0065;0;0.4984;0;0.543;205.214;0;0;0;48.282;48.45;1;-1;0;0;0;0;0;0;0;0;0;-1;0.00000000;0.00000000;0.00000000;0.00000000;0.00000000;0.00000000;0.00000000;
35289136;76.7;20.8;20.8;18;17.8;19.4;0;0;0;0;0;-0.001;0.0065;0;0.4984;0;6883;6907;181.8;0;56;-0.032;-0.039;35289105;0.0065;0;0.4984;0;0.543;205.213;0;0;0;48.282;48.45;1;-1;0;0;0;0;0;0;0;0;0;-1;0.00000000;0.00000000;0.00000000;0.00000000;0.00000000;0.00000000;0.00000000;
35289200;76.7;20.8;20.8;18;17.8;19.4;0;0;0;0;0;-0.001;0.0065;0;0.4984;0;6883;6907;181.8;0;56;-0.029;-0.044;35289144;0.0065;0;0.4984;0;0.543;205.213;0;0;0;48.282;48.45;1;-1;0;0;0;0;0;0;0;0;0;-1;0.00000000;0.00000000;0.00000000;0.00000000;0.00000000;0.00000000;0.00000000;
35289232;76.8;20.8;20.8;18;17.8;19.4;0;0;0;0;0;-0.001;0.0065;0;0.4984;0;6883;6907;181.8;0;56;-0.036;-0.032;35289201;0.0065;0;0.4984;0;0.543;205.211;0;0;0;48.282;48.45;1;-1;0;0;0;0;0;0;0;0;0;-1;0.00000000;0.00000000;0.00000000;0.00000000;0.00000000;0.00000000;0.00000000;
35289261;76.7;20.8;20.8;18.1;17.9;19.5;0;0;0;0;0;-0.001;0.0065;0;0.4984;0;6883;6907;181.8;0;56;-0.033;-0.036;35289233;0.0065;0;0.4984;0;0.543;205.211;0;0;0;48.282;48.45;1;-1;0;0;0;0;0;0;0;0;0;-1;0.00000000;0.00000000;0.00000000;0.00000000;0.00000000;0.00000000;0.00000000;
35289290;76.7;20.8;20.8;18.1;17.9;19.5;0;0;0;0;0;-0.001;0.0065;0;0.4984;0;6883;6907;181.8;0;56;-0.031;-0.042;35289262;0.0065;0;0.4984;0;0.543;205.214;0;0;0;48.282;48.45;1;-1;0;0;0;0;0;0;0;0;0;-1;0.00000000;0.00000000;0.00000000;0.00000000;0.00000000;0.00000000;0.00000000;
35289321;76.8;20.8;20.8;18;17.8;19.5;0;0;0;0;0;-0.001;0.0065;0;0.4984;0;6883;6907;181.8;0;56;-0.035;-0.033;35289291;0.0065;0;0.4984;0;0.543;205.215;0;0;0;48.282;48.45;1;-1;0;0;0;0;0;0;0;0;0;-1;0.00000000;0.00000000;0.00000000;0.00000000;0.00000000;0.00000000;0.00000000;
35289352;76.7;20.8;20.8;18.1;17.9;19.5;0;0;0;0;0;-0.002;0.0065;0;0.4984;0;6883;6907;181.8;0;56;-0.033;-0.04;35289321;0.0065;0;0.4984;0;0.543;205.216;0;0;0;48.282;48.45;1;-1;0;0;0;0;0;0;0;0;0;-1;0.00000000;0.00000000;0.00000000;0.00000000;0.00000000;0.00000000;0.00000000;
35289421;76.7;20.8;20.8;18;17.8;19.4;0;0;0;0;0;-0.001;0.0065;0;0.4984;0;6883;6907;181.8;0;56;-0.033;-0.038;35289352;0.0065;0;0.4984;0;0.543;205.215;0;0;0;48.282;48.45;1;-1;0;0;0;0;0;0;0;0;0;-1;0.00000000;0.00000000;0.00000000;0.00000000;0.00000000;0.00000000;0.00000000;
35289441;76.7;20.8;20.7;18.1;17.9;19.4;0;0;0;0;0;-0.001;0.0065;0;0.4984;0;6883;6907;181.8;0;56;-0.043;-0.016;35289422;0.0065;0;0.4984;0;0.543;205.214;0;0;0;48.282;48.45;1;-1;0;0;0;0;0;0;0;0;0;-1;0.00000000;0.00000000;0.00000000;0.00000000;0.00000000;0.00000000;0.00000000;
35289478;76.7;20.8;20.8;18.1;17.9;19.3;0;0;0;0;0;-0.001;0.0065;0;0.4984;0;6883;6907;181.8;0;56;-0.038;-0.029;35289441;0.0065;0;0.4984;0;0.543;205.214;0;0;0;48.282;48.45;1;-1;0;0;0;0;0;0;0;0;0;-1;0.00000000;0.00000000;0.00000000;0.00000000;0.00000000;0.00000000;0.00000000;
35289509;76.8;20.8;20.8;18.1;17.8;19.3;0;0;0;0;0;-0.001;0.0065;0;0.4984;0;6883;6907;181.8;0;56;-0.033;-0.037;35289479;0.0065;0;0.4984;0;0.543;205.213;0;0;0;48.282;48.45;1;-1;0;0;0;0;0;0;0;0;0;-1;0.00000000;0.00000000;0.00000000;0.00000000;0.00000000;0.00000000;0.00000000;
35289531;76.7;20.8;20.8;18.1;17.9;19.3;0;0;0;0;0;-0.001;0.0065;0;0.4984;0;6883;6907;181.8;0;56;-0.037;-0.027;35289510;0.0065;0;0.4984;0;0.543;205.215;0;0;0;48.282;48.45;1;-1;0;0;0;0;0;0;0;0;0;-1;0.00000000;0.00000000;0.00000000;0.00000000;0.00000000;0.00000000;0.00000000;
35289570;76.7;20.8;20.8;18.1;17.9;19.4;0;0;0;0;0;-0.001;0.0065;0;0.4984;0;6883;6907;181.8;0;56;-0.034;-0.035;35289531;0.0065;0;0.4984;0;0.543;205.215;0;0;0;48.282;48.45;1;-1;0;0;0;0;0;0;0;0;0;-1;0.00000000;0.00000000;0.00000000;0.00000000;0.00000000;0.00000000;0.00000000;
35289611;76.7;20.8;20.8;17.9;17.7;19.5;0;0;0;0;0;-0.001;0.0065;0;0.4984;0;6883;6907;181.8;0;56;-0.032;-0.04;35289570;0.0065;0;0.4984;0;0.543;205.213;0;0;0;48.282;48.45;1;-1;0;0;0;0;0;0;0;0;0;-1;0.00000000;0.00000000;0.00000000;0.00000000;0.00000000;0.00000000;0.00000000;
35289642;76.8;20.8;20.8;18;17.8;19.5;0;0;0;0;0;-0.001;0.0065;0;0.4984;0;6883;6907;181.8;0;56;-0.041;-0.024;35289612;0.0065;0;0.4984;0;0.543;205.213;0;0;0;48.282;48.45;1;-1;0;0;0;0;0;0;0;0;0;-1;0.00000000;0.00000000;0.00000000;0.00000000;0.00000000;0.00000000;0.00000000;
35289671;76.7;20.8;20.8;18;17.8;19.5;0;0;0;0;0;-0.001;0.0065;0;0.4984;0;6883;6907;181.8;0;56;-0.033;-0.036;35289642;0.0065;0;0.4984;0;0.543;205.213;0;0;0;48.282;48.45;1;-1;0;0;0;0;0;0;0;0;0;-1;0.00000000;0.00000000;0.00000000;0.00000000;0.00000000;0.00000000;0.00000000;
35289699;76.7;20.8;20.9;18.1;17.9;19.5;0;0;0;0;0;-0.001;0.0065;0;0.4984;0;6883;6907;181.8;0;56;-0.035;-0.035;35289671;0.0065;0;0.4984;0;0.543;205.212;0;0;0;48.282;48.45;1;-1;0;0;0;0;0;0;0;0;0;-1;0.00000000;0.00000000;0.00000000;0.00000000;0.00000000;0.00000000;0.00000000;
35289731;76.8;20.8;20.9;18;17.8;19.4;0;0;0;0;0;-0.001;0.0065;0;0.4984;0;6883;6907;181.8;0;56;-0.03;-0.043;35289699;0.0065;0;0.4984;0;0.543;205.211;0;0;0;48.282;48.45;1;-1;0;0;0;0;0;0;0;0;0;-1;0.00000000;0.00000000;0.00000000;0.00000000;0.00000000;0.00000000;0.00000000;
35289761;76.7;20.8;20.8;18.1;17.9;19.4;0;0;0;0;0;-0.001;0.0065;0;0.4984;0;6883;6907;181.8;0;56;-0.032;-0.04;35289731;0.0065;0;0.4984;0;0.543;205.21;0;0;0;48.282;48.45;1;-1;0;0;0;0;0;0;0;0;0;-1;0.00000000;0.00000000;0.00000000;0.00000000;0.00000000;0.00000000;0.00000000;
35289796;76.8;20.8;20.8;18;17.8;19.4;0;0;0;0;0;-0.003;0.0065;0;0.4984;0;6883;6907;181.8;0;56;-0.037;-0.03;35289762;0.0065;0;0.4984;0;0.543;205.21;0;0;0;48.282;48.45;1;-1;0;0;0;0;0;0;0;0;0;-1;0.00000000;0.00000000;0.00000000;0.00000000;0.00000000;0.00000000;0.00000000;
35289830;76.8;20.8;20.7;18;17.8;19.3;0;0;0;0;0;-0.001;0.0065;0;0.4984;0;6883;6907;181.8;0;56;-0.037;-0.03;35289796;0.0065;0;0.4984;0;0.543;205.212;0;0;0;48.282;48.45;1;-1;0;0;0;0;0;0;0;0;0;-1;0.00000000;0.00000000;0.00000000;0.00000000;0.00000000;0.00000000;0.00000000;
35289861;76.8;20.8;21;18.1;17.9;19.3;0;0;0;0;0;-0.001;0.0065;0;0.4984;0;6883;6907;181.8;0;56;-0.03;-0.044;35289830;0.0065;0;0.4984;0;0.543;205.212;0;0;0;48.282;48.45;1;-1;0;0;0;0;0;0;0;0;0;-1;0.00000000;0.00000000;0.00000000;0.00000000;0.00000000;0.00000000;0.00000000;
35289898;76.7;20.8;20.9;18;17.8;19.4;0;0;0;0;0;-0.001;0.0065;0;0.4984;0;6883;6907;181.8;0;56;-0.028;-0.046;35289869;0.0065;0;0.4984;0;0.543;205.213;0;0;0;48.282;48.45;1;-1;0;0;0;0;0;0;0;0;0;-1;0.00000000;0.00000000;0.00000000;0.00000000;0.00000000;0.00000000;0.00000000;
35289976;76.7;20.8;20.8;18;17.8;19.4;0;0;0;0;0;-0.001;0.0065;0;0.4984;0;6883;6907;181.8;0;56;-0.033;-0.037;35289899;0.0065;0;0.4984;0;0.543;205.213;0;0;0;48.282;48.45;1;-1;0;0;0;0;0;0;0;0;0;-1;0.00000000;0.00000000;0.00000000;0.00000000;0.00000000;0.00000000;0.00000000;
35290017;76.7;20.8;20.8;18.1;17.9;19.5;0;0;0;0;0;-0.001;0.0065;0;0.4984;0;6883;6907;181.8;0;56;-0.036;-0.033;35289977;0.0065;0;0.4984;0;0.543;205.214;0;0;0;48.282;48.45;1;-1;0;0;0;0;0;0;0;0;0;-1;0.00000000;0.00000000;0.00000000;0.00000000;0.00000000;0.00000000;0.00000000;
35290047;76.7;20.8;20.8;18;17.8;19.5;0;0;0;0;0;0.001;0.0065;0;0.4984;0;6883;6907;181.8;0;56;-0.035;-0.034;35290017;0.0065;0;0.4984;0;0.543;205.213;0;0;0;48.282;48.45;1;-1;0;0;0;0;0;0;0;0;0;-1;0.00000000;0.00000000;0.00000000;0.00000000;0.00000000;0.00000000;0.00000000;
35290075;76.7;20.8;20.8;18;17.8;19.5;0;0;0;0;0;-0.001;0.0065;0;0.4984;0;6883;6907;181.8;0;56;-0.031;-0.041;35290048;0.0065;0;0.4984;0;0.543;205.214;0;0;0;48.282;48.45;1;-1;0;0;0;0;0;0;0;0;0;-1;0.00000000;0.00000000;0.00000000;0.00000000;0.00000000;0.00000000;0.00000000;
